     2.11           OBSERVATION DATA    M (MIXED)           RINEX VERSION / TYPE
teqc  2015Jun23                         20220329 12:49:16UTCPGM / RUN BY / DATE
OSX ker:10.10.3|Core i5|gcc 4.2 -m64|OSX ker:10.10+|=+      COMMENT
teqc  2015Jun23                         20220329 12:49:15UTCCOMMENT
teqc  2013Mar15     gpsops              20141028 00:07:35UTCCOMMENT
Linux 2.4.21-27.ELsmp|Opteron|gcc -static|Linux x86_64|=+   COMMENT
BIT 2 OF LLI FLAGS DATA COLLECTED UNDER A/S CONDITION       COMMENT
BSHM                                                        MARKER NAME
20705M001                                                   MARKER NUMBER
GGN                 JPL                                     OBSERVER / AGENCY
01704               JAVAD TRE_G3TH DELTA3.5.7b0             REC # / TYPE / VERS
4811A47089          TRM59800.00     SCIS                    ANT # / TYPE
  4396111.1752  3080477.6419  3433499.4619                  APPROX POSITION XYZ
        0.0000        0.0000        0.0000                  ANTENNA: DELTA H/E/N
     1     1                                                WAVELENGTH FACT L1/2
     2    L1    C1                                          # / TYPES OF OBSERV
    30.0000                                                 INTERVAL
                                                            COMMENT
This data is provided as a public service by NASA/JPL.      COMMENT
No warranty is expressed or implied regarding suitability   COMMENT
for use.  For further information, contact:                 COMMENT
Dave Stowers, NASA/JPL m/s 238-600                          COMMENT
4800 Oak Grove Drive, Pasadena CA 91109 USA                 COMMENT
                                                            COMMENT
Forced Modulo Decimation to 30 seconds                      COMMENT
 SNR is mapped to RINEX snr flag value [0-9]                COMMENT
  L1 & L2: min(max(int(snr_dBHz/6), 0), 9)                  COMMENT
pseudorange smoothing corrections not applied               COMMENT
    16                                                      LEAP SECONDS
teqc edited: all GLONASS satellites excluded                COMMENT
teqc edited: all Galileo satellites excluded                COMMENT
  2014    10    27     0     0    0.0000000     GPS         TIME OF FIRST OBS
                                                            END OF HEADER
 14 10 27  0  0  0.0000000  0 11G05G11G30G26G17G15G28G13G24G01G07
 129722386.699 7  24685355.063
 133748483.625 6  25451504.410
 120491238.444 7  22928607.740
 106275111.312 9  20223478.751
 112485737.628 8  21405315.036
 117801497.306 8  22416877.465
 116107373.167 8  22094446.603
 129133937.139 6  24573327.110
 131529878.682 6  25029302.620
 135420673.249 5  25769698.133
 132579985.640 5  25229029.627
 14 10 27  0  0 30.0000000  0 11G05G11G30G26G17G15G28G13G24G01G07
 129802393.715 7  24700581.100
 133773218.114 5  25456211.379
 120550141.568 7  22939816.250
 106284889.621 9  20225339.339
 112452752.835 8  21399038.080
 117736048.148 8  22404422.884
 116171222.749 8  22106596.904
 129246805.380 7  24594805.262
 131448917.637 6  25013897.042
 135390440.179 5  25763942.233
 132656072.247 6  25243512.807
 14 10 27  0  1  0.0000000  0 11G05G11G30G26G17G15G28G13G24G01G07
 129882367.860 7  24715799.592
 133798434.124 5  25461010.980
 120609198.165 7  22951054.601
 106295276.759 9  20227315.958
 112420279.479 8  21392858.650
 117670996.073 8  22392043.704
 116235171.096 8  22118765.420
 129359779.536 7  24616303.490
 131367899.692 6  24998480.525
 135360558.762 5  25758257.315
 132732265.747 6  25258013.905
 14 10 27  0  1 30.0000000  0 11G05G11G30G26G17G15G28G13G24G01G07
 129962312.684 7  24731012.227
 133824137.918 5  25465900.811
 120668414.659 7  22962323.486
 106306278.932 9  20229409.861
 112388325.065 8  21386777.767
 117606349.481 8  22379742.210
 116299223.058 8  22130954.382
 129472865.432 7  24637823.583
 131286831.017 6  24983051.796
 135331037.131 6  25752640.928
 132808571.985 6  25272535.900
 14 10 27  0  2  0.0000000  0 11G05G11G30G26G17G15G28G13G24G01G07
 130042231.241 7  24746221.808
 133850335.523 6  25470886.605
 120727797.811 7  22973623.108
 106317902.672 9  20231621.493
 112356897.094 8  21380797.302
 117542116.811 8  22367518.865
 116363383.720 8  22143163.568
 129586066.344 7  24659366.073
 131205718.595 6  24967617.956
 135301883.579 5  25747095.409
 132884997.592 6  25287084.473
 14 10 27  0  2 30.0000000  0 11G05G11G30G26G17G15G28G13G24G01G07
 130122117.362 7  24761424.372
 133877023.024 6  25475966.388
 120787344.314 7  22984954.707
 106330144.538 9  20233951.031
 112325993.539 8  21374916.535
 117478296.557 8  22355374.498
 116427647.387 8  22155393.140
 129699376.626 7  24680927.637
 131124559.410 6  24952173.408
 135273097.101 5  25741613.221
 132961538.712 6  25301642.973
 14 10 27  0  3  0.0000000  0 11G05G11G30G26G17G15G28G13G24G01G07
 130201967.650 7  24776618.616
 133904199.667 5  25481136.105
 120847053.531 7  22996317.085
 106343003.596 9  20236398.055
 112295614.489 8  21369135.698
 117414890.146 8  22343308.518
 116492011.538 8  22167641.110
 129812792.829 6  24702509.257
 131043352.644 6  24936719.300
 135244678.893 5  25736210.461
 133038194.432 5  25316228.162
 14 10 27  0  3 30.0000000  0 11G05G11G30G26G17G15G28G13G24G01G07
 130281783.860 7  24791808.340
 133931869.823 5  25486401.025
 120906930.234 7  23007710.866
 106356484.310 9  20238963.291
 112265765.809 8  21363455.520
 117351904.309 8  22331322.422
 116556479.080 8  22179908.511
 129926317.432 6  24724111.727
 130962103.711 6  24921259.942
 135216635.533 4  25730870.263
 133114969.449 5  25330837.626
 14 10 27  0  4  0.0000000  0 11G05G11G30G26G17G15G28G13G24G01G07
 130361559.600 7  24806988.419
 133960029.514 6  25491760.553
 120966971.168 7  23019137.247
 106370583.236 9  20241646.270
 112236445.182 8  21357876.102
 117289337.573 8  22319416.440
 116621044.987 8  22192195.343
 130039945.344 6  24745736.415
 130880809.154 6  24905789.273
 135188965.554 6  25725606.830
 133191860.373 5  25345467.393
 14 10 27  0  4 30.0000000  0 11G05G11G30G26G17G15G28G13G24G01G07
 130441292.700 7  24822160.549
 133988678.705 6  25497213.667
 121027177.046 7  23030593.196
 106385300.689 9  20244446.979
 112207654.037 8  21352397.368
 117227192.585 8  22307590.942
 116685708.121 8  22204499.730
 130153673.943 6  24767376.948
 130799469.752 6  24890311.056
 135161671.157 5  25720410.915
 133268867.433 5  25360125.912
 14 10 27  0  5  0.0000000  0 11G05G11G30G26G17G15G28G13G24G01G07
 130520983.916 6  24837325.808
 134017820.424 6  25502757.712
 121087551.545 7  23042082.772
 106400640.014 9  20247365.961
 112179396.912 8  21347020.191
 117165474.737 8  22295846.557
 116750470.565 8  22216824.073
 130267504.664 6  24789037.619
 130718089.403 6  24874825.889
 135134757.795 5  25715287.017
 133345993.669 6  25374804.004
 14 10 27  0  5 30.0000000  0 11G05G11G30G26G17G15G28G13G24G01G07
 130600626.105 6  24852482.978
 134047450.462 6  25508396.087
 121148090.950 7  23053602.698
 106416597.090 9  20250402.662
 112151671.071 8  21341744.035
 117104182.366 8  22284182.899
 116815326.252 8  22229165.748
 130381431.710 7  24810718.363
 130636664.706 6  24859331.259
 135108223.642 6  25710239.564
 133423227.989 6  25389503.262
 14 10 27  0  6  0.0000000  0 11G05G11G30G26G17G15G28G13G24G01G07
 130680226.753 6  24867630.115
 134077577.998 6  25514129.766
 121208805.035 7  23065156.395
 106433181.421 9  20253558.503
 112124487.349 8  21336571.273
 117043327.040 8  22272602.272
 116880283.270 8  22241526.695
 130495462.230 6  24832418.531
 130555205.518 6  24843829.262
 135082080.176 5  25705264.440
 133500595.112 6  25404223.056
 14 10 27  0  6 30.0000000  0 11G05G11G30G26G17G15G28G13G24G01G07
 130759769.299 6  24882767.033
 134108188.730 5  25519954.328
 121269680.251 7  23076740.635
 106450378.898 9  20256830.936
 112097832.398 8  21331498.729
 116982897.176 8  22261102.813
 116945326.198 8  22253903.769
 130609579.479 7  24854134.545
 130473698.172 6  24828318.241
 135056315.639 6  25700360.793
 133578073.669 6  25418967.331
 14 10 27  0  7  0.0000000  0 11G05G11G30G26G17G15G28G13G24G01G07
 130839256.125 6  24897892.942
 134139287.681 5  25525871.930
 121330722.123 7  23088355.908
 106468194.627 9  20260221.090
 112071713.028 8  21326528.251
 116922899.824 8  22249686.317
 117010458.842 8  22266298.051
 130723787.762 6  24875866.467
 130392148.918 6  24812800.202
 135030937.293 5  25695532.908
 133655668.611 6  25433733.277
 14 10 27  0  7 30.0000000  0 11G05G11G30G26G17G15G28G13G24G01G07
 130918685.901 6  24913006.768
 134170876.067 5  25531883.464
 121391932.503 7  23100003.765
 106486630.024 9  20263729.430
 112046131.711 8  21321660.741
 116863338.918 8  22238351.960
 117075681.217 8  22278709.925
 130838085.830 7  24897616.817
 130310559.557 6  24797273.952
 135005948.368 5  25690777.826
 133733382.007 6  25448522.113
 14 10 27  0  8  0.0000000  0 11G05G11G30G26G17G15G28G13G24G01G07
 130998051.967 6  24928110.203
 134202949.084 5  25537987.460
 121453307.078 7  23111683.143
 106505680.348 9  20267354.522
 112021084.941 8  21316894.284
 116804211.811 8  22227100.417
 117140987.312 8  22291136.984
 130952466.871 7  24919382.956
 130228925.871 6  24781739.634
 134981326.488 4  25686094.549
 133811209.092 6  25463333.162
 14 10 27  0  8 30.0000000  0 11G05G11G30G26G17G15G28G13G24G01G07
 131077358.324 6  24943202.563
 134235512.594 5  25544182.405
 121514852.967 7  23123394.970
 106525352.129 9  20271097.940
 111996580.633 8  21312231.014
 116745527.565 8  22215933.248
 117206382.468 8  22303581.096
 131066935.195 7  24941165.753
 130147255.393 6  24766198.920
 134957052.813 3  25681489.206
 133889156.861 6  25478164.775
 14 10 27  0  9  0.0000000  0 11G05G11G30G26G17G15G28G13G24G01G07
 131156600.680 6  24958283.291
 134268564.882 5  25550470.052
 121576569.078 7  23135139.383
 106545643.713 9  20274959.323
 111972618.291 8  21307671.612
 116687286.947 8  22204850.008
 117271863.516 8  22316041.561
 131181487.785 6  24962965.425
 130065546.842 6  24750650.209
 134933220.136 4  25676959.952
 133967223.278 6  25493020.329
 14 10 27  0  9 30.0000000  0 11G05G11G30G26G17G15G28G13G24G01G07
 131235769.271 6  24973347.763
 134302097.861 6  25556852.727
 121638447.841 7  23146914.135
 106566547.079 9  20278937.185
 111949191.062 8  21303213.364
 116629483.977 8  22193850.856
 117337421.449 7  22328516.891
 131296114.585 6  24984778.030
 129983793.811 6  24735093.357
 134909796.336 4  25672501.697
 134045400.959 6  25507898.003
 14 10 27  0 10  0.0000000  0 11G05G11G30G26G17G15G28G13G24G01G07
 131314863.136 6  24988400.462
 134336113.137 6  25563326.335
 121700491.955 7  23158721.014
 106588064.314 9  20283031.870
 111926302.303 8  21298857.641
 116572123.332 8  22182935.649
 117403057.310 8  22341006.996
 131410815.495 6  25006605.540
 129901998.579 6  24719529.119
 134886772.391 4  25668120.211
 134123693.222 6  25522794.298
 14 10 27  0 10 30.0000000  0 11G05G11G30G26G17G15G28G13G24G01G07
 131393889.121 6  25003438.151
 134370619.546 5  25569892.433
 121762710.921 7  23170561.127
 106610204.227 9  20287244.590
 111903962.555 8  21294606.662
 116515216.098 8  22172106.390
 117468778.453 8  22353513.580
 131525597.969 6  25028447.604
 129820170.918 5  24703956.458
 134864154.517 5  25663818.846
 134202108.377 6  25537717.563
 14 10 27  0 11  0.0000000  0 11G05G11G30G26G17G15G28G13G24G01G07
 131472833.498 7  25018460.594
 134405605.413 5  25576548.609
 121825093.618 7  23182432.110
 106632955.139 9  20291574.246
 111882160.824 8  21290457.954
 116458753.081 8  22161361.634
 117534572.344 8  22366033.675
 131640448.456 6  25050303.710
 129738300.100 6  24688376.911
 134841933.017 4  25659588.235
 134280634.757 6  25552659.428
 14 10 27  0 11 30.0000000  0 12G05G11G30G26G17G15G28G13G24G01G12G07
 131551690.679 6  25033467.475
 134441066.642 6  25583295.778
 121887636.940 7  23194333.690
 106656313.256 9  20296019.019
 111860894.734 9  21286411.153
 116402732.650 8  22150701.614
 117600434.102 8  22378566.716
 131755360.918 6  25072170.902
 129656383.414 6  24672788.533
 134820106.504 5  25655437.130
 130837549.677 5  24897559.838
 134359269.187 6  25567623.092
 14 10 27  0 12  0.0000000  0 12G05G11G30G26G17G15G28G13G24G01G12G07
 131630470.666 7  25048459.243
 134477016.044 5  25590136.589
 121950354.369 7  23206268.651
 106680291.346 9  20300582.046
 111840178.272 9  21282468.958
 116347170.494 8  22140128.346
 117666375.246 8  22391115.285
 131870346.840 6  25094051.677
 129574434.932 6  24657194.389
 134798689.962 5  25651357.897
 130750170.874 6  24880932.179
 134438025.095 6  25582609.237
 14 10 27  0 12 30.0000000  0 11G05G11G30G26G17G15G28G13G24G01G12
 131709167.254 6  25063434.860
 134513448.495 5  25597070.676
 122013242.026 7  23218235.682
 106704884.958 9  20305261.845
 111820008.449 9  21278630.661
 116292064.053 8  22129641.945
 117732390.299 8  22403677.459
 131985399.703 5  25115943.927
 129492450.334 5  24641592.662
 134777681.163 5  25647361.055
 130662963.158 6  24864336.042
 14 10 27  0 13  0.0000000  0 11G05G11G30G26G17G15G28G13G24G01G12
 131787772.847 7  25078393.255
 134550358.665 5  25604094.790
 122076295.083 7  23230234.510
 106730088.403 9  20310057.883
 111800380.868 9  21274895.671
 116237410.475 8  22119241.798
 117798472.906 8  22416252.591
 132100512.443 6  25137850.251
 129410425.450 6  24625985.243
 134757076.778 6  25643444.347
 130575922.317 6  24847772.781
 14 10 27  0 13 30.0000000  0 11G05G11G30G26G17G15G28G13G24G01G12
 131866286.081 6  25093335.204
 134587746.984 5  25611208.321
 122139515.512 7  23242264.600
 106755902.892 9  20314970.210
 111781297.840 9  21271264.319
 116183213.461 8  22108928.237
 117864623.365 8  22428840.239
 132215684.401 6  25159766.469
 129328362.801 6  24610368.899
 134736880.241 5  25639595.649
 130489051.088 6  24831240.506
 14 10 27  0 14  0.0000000  0 11G05G11G30G26G17G15G28G13G24G01G12
 131944689.916 6  25108254.099
 134625599.037 5  25618411.741
 122202889.005 7  23254324.470
 106782313.431 9  20319996.019
 111762745.410 9  21267733.662
 116129460.188 8  22098699.285
 117930825.707 8  22441438.230
 132330898.802 6  25181690.103
 129246248.070 6  24594742.108
 134717078.876 6  25635832.006
 130402335.416 6  24814737.708
 14 10 27  0 14 30.0000000  0 11G05G11G30G26G17G15G28G13G24G01G12
 132023004.396 5  25123157.746
 134663936.201 5  25625707.010
 122266438.247 7  23266417.073
 106809341.922 9  20325139.457
 111744747.385 9  21264308.811
 116076175.064 8  22088559.810
 117997100.826 8  22454050.012
 132446176.137 6  25203628.498
 129164104.541 6  24579112.779
 134697696.985 5  25632140.672
 130315798.482 6  24798270.481
 14 10 27  0 15  0.0000000  0 11G05G11G30G26G17G15G28G13G24G01G12
 132101220.905 5  25138043.480
 134702751.224 5  25633096.003
 122330156.988 7  23278543.026
 106836981.273 9  20330398.960
 111727297.596 9  21260988.467
 116023353.726 8  22078508.065
 118063441.060 8  22466673.901
 132561507.476 6  25225574.936
 129081926.272 6  24563472.626
 134678729.647 5  25628528.695
 130229434.518 6  24781835.703
 14 10 27  0 15 30.0000000  0 11G05G11G30G26G17G15G28G13G24G01G12
 132179336.451 5  25152909.430
 134742043.311 6  25640570.575
 122394045.068 7  23290700.358
 106865230.471 9  20335774.858
 111710396.249 9  21257772.102
 115970997.434 8  22068544.726
 118129844.631 8  22479310.471
 132676890.390 6  25247532.050
 128999713.543 6  24547828.045
 134660178.295 5  25624998.927
 130143243.503 6  24765434.879
 14 10 27  0 16  0.0000000  0 10G11G30G26G17G15G28G13G24G01G12
 134781814.071 6  25648140.221
 122458105.282 7  23302889.588
 106894091.387 9  20341266.900
 111694046.771 9  21254661.157
 115919110.998 8  22058671.110
 118196312.593 8  22491958.480
 132792325.245 6  25269498.324
 128917469.518 6  24532176.989
 134642047.151 6  25621554.436
 130057228.998 6  24749067.779
 14 10 27  0 16 30.0000000  0 10G11G30G26G17G15G28G13G24G01G12
 134822060.725 4  25655797.788
 122522335.961 7  23315113.170
 106923561.530 9  20346875.115
 111678247.867 9  21251654.222
 115867693.980 8  22048887.401
 118262841.674 8  22504618.290
 132907807.922 5  25291474.946
 128835192.869 6  24516520.592
 134624336.003 6  25618182.214
 129971389.680 6  24732732.209
 14 10 27  0 17  0.0000000  0 10G11G30G26G17G15G28G13G24G01G12
 134862777.733 4  25663547.050
 122586732.559 7  23327367.164
 106953635.482 9  20352597.924
 111662995.247 9  21248751.827
 115816743.952 8  22039191.276
 118329425.837 8  22517289.376
 133023331.490 5  25313459.767
 128752879.691 6  24500857.287
 134607041.681 6  25614890.807
 129885721.597 6  24716430.035
 14 10 27  0 17 30.0000000  0  9G30G26G17G15G28G13G24G01G12
 122651303.958 7  23339654.992
 106984321.119 9  20358436.853
 111648298.349 9  21245955.189
 115766271.355 8  22029586.965
 118396072.214 8  22529971.986
 133138902.703 5  25335452.839
 128670539.119 6  24485187.866
 134590174.776 6  25611683.116
 129800234.096 6  24700161.925
 14 10 27  0 18  0.0000000  0  9G30G26G17G15G28G13G24G01G12
 122716043.860 7  23351974.620
 107015611.214 9  20364391.191
 111634151.122 9  21243262.856
 115716271.277 8  22020072.465
 118462772.776 8  22542664.626
 133254512.396 4  25357458.455
 128588165.305 6  24469512.096
 134573730.080 6  25608552.615
 129714921.261 6  24683925.401
 14 10 27  0 18 30.0000000  0  8G30G26G17G15G28G24G01G12
 122780955.257 7  23364326.848
 107047507.836 9  20370461.024
 111620556.655 9  21240676.076
 115666748.407 8  22010648.365
 118529529.523 8  22555367.885
 128505761.503 6  24453832.142
 134557712.272 6  25605503.517
 129629786.228 6  24667723.680
 14 10 27  0 19  0.0000000  0  8G30G26G17G15G28G24G01G12
 122846033.236 7  23376711.317
 107080005.000 9  20376645.110
 111607510.617 9  21238193.712
 115617699.568 8  22001314.596
 118596335.791 8  22568080.786
 128423323.485 6  24438144.440
 134542117.524 6  25602536.487
 129544824.689 6  24651557.137
 14 10 27  0 19 30.0000000  0  8G30G26G17G15G28G24G01G12
 122911279.587 7  23389126.495
 107113103.587 9  20382943.709
 111595015.060 9  21235816.076
 115569128.064 8  21992071.791
 118663191.773 8  22580803.091
 128340853.455 6  24422452.339
 134526949.323 6  25599649.003
 129460038.829 6  24635423.521
 14 10 27  0 20  0.0000000  0  8G30G26G17G15G28G24G01G12
 122976701.034 7  23401575.899
 107146809.162 9  20389357.735
 111583077.021 9  21233544.009
 115521042.051 8  21982921.405
 118730102.705 8  22593536.058
 128258358.861 6  24406752.686
 134512215.555 6  25596842.757
 129375435.816 6  24619323.710
 14 10 27  0 20 30.0000000  0  8G30G26G17G15G28G24G01G12
 123042293.379 7  23414057.961
 107181116.548 9  20395886.011
 111571692.617 9  21231377.675
 115473439.007 8  21973862.019
 118797062.829 8  22606277.869
 128175835.731 6  24391049.530
 134497913.526 6  25594126.511
 129291011.671 6  24603258.129
 14 10 27  0 21  0.0000000  0  8G30G26G17G15G28G24G01G12
 123108052.782 7  23426571.883
 107216020.755 9  20402528.040
 111560858.326 9  21229315.908
 115426316.278 8  21964895.637
 118864066.926 8  22619028.215
 128093280.684 6  24375339.719
 134484040.485 6  25591481.818
 129206763.267 6  24587226.163
 14 10 27  0 21 30.0000000  0  8G30G26G17G15G28G24G01G12
 123173985.748 7  23439118.373
 107251527.201 9  20409284.575
 111550580.434 9  21227359.999
 115379682.755 8  21956022.073
 118931119.968 7  22631788.430
 128010701.158 6  24359626.684
 134470604.499 6  25588927.704
 129122697.468 6  24571228.764
 14 10 27  0 22  0.0000000  0  8G30G26G17G15G28G24G01G12
 123240084.235 7  23451696.452
 107287626.772 9  20416154.340
 111540850.974 9  21225508.445
 115333531.502 8  21947239.136
 118998212.600 7  22644555.242
 127928088.832 6  24343904.774
 134457598.739 5  25586449.870
 129038806.584 6  24555264.397
 14 10 27  0 22 30.0000000  0  8G30G26G17G15G28G24G01G12
 123306351.415 6  23464306.445
 107324321.460 9  20423137.150
 111531673.906 9  21223762.322
 115287866.938 8  21938549.800
 119065346.358 7  22657330.603
 127845448.093 6  24328179.684
 134445027.616 6  25584059.440
 128955093.989 6  24539332.967
 14 10 27  0 23  0.0000000  0  8G30G26G17G15G28G24G01G12
 123372790.825 7  23476949.413
 107361613.604 9  20430233.521
 111523052.954 9  21222121.917
 115242694.571 8  21929953.502
 119132523.500 8  22670113.963
 127762783.366 6  24312449.959
 134432895.939 5  25581749.634
 128871563.793 6  24523437.340
 14 10 27  0 23 30.0000000  0  8G30G26G17G15G28G24G01G12
 123439413.783 7  23489627.183
 107399513.336 9  20437445.732
 111514999.158 9  21220589.032
 115198026.981 8  21921453.166
 119199753.939 7  22682906.968
 127680105.890 6  24296715.358
 134421216.377 6  25579526.477
 128788227.601 6  24507579.965
 14 10 27  0 24  0.0000000  0  8G30G26G17G15G28G24G01G12
 123506206.646 7  23502337.687
 107438005.831 9  20444770.561
 111507498.796 9  21219162.041
 115153851.976 8  21913047.080
 119267022.516 8  22695708.018
 127597402.688 6  24280977.521
 134409976.567 6  25577389.386
 128705072.213 6  24491757.548
 14 10 27  0 24 30.0000000  0  8G30G26G17G15G28G24G01G12
 123573170.969 7  23515081.017
 107477091.468 9  20452208.357
 111500553.713 9  21217840.377
 115110172.821 8  21904735.420
 119334329.360 7  22708516.125
 127514676.227 6  24265233.908
 134399179.171 6  25575333.827
 128622099.641 6  24475966.580
 14 10 27  0 25  0.0000000  0  8G30G26G17G15G28G24G01G12
 123640300.642 7  23527854.907
 107516762.773 9  20459757.374
 111494157.845 9  21216623.286
 115066984.481 8  21896516.929
 119401667.089 7  22721330.256
 127431920.609 6  24249487.182
 134388819.265 6  25573362.450
 128539304.045 6  24460211.505
 14 10 27  0 25 30.0000000  0  8G30G26G17G15G28G24G01G12
 123707602.539 7  23540662.353
 107557025.454 9  20467419.051
 111488318.401 9  21215512.019
 115024295.569 8  21888393.282
 119469041.221 8  22734151.877
 127349143.890 6  24233736.305
 134378905.038 6  25571477.532
 128456692.701 6  24444490.432
 14 10 27  0 26  0.0000000  0  8G30G26G17G15G28G24G01G12
 123775073.118 7  23553502.055
 107597874.625 9  20475192.464
 111483031.762 9  21214505.883
 114982104.049 8  21880365.074
 119536446.979 8  22746978.379
 127266342.881 5  24217976.870
 134369434.117 6  25569672.954
 128374262.627 6  24428804.182
 14 10 27  0 26 30.0000000  0  8G30G26G17G15G28G24G01G12
 123842727.584 7  23566376.241
 107639324.123 9  20483080.079
 111478313.027 9  21213608.026
 114940426.289 8  21872433.712
 119603898.154 8  22759813.651
 127183533.342 6  24202221.085
 134360422.814 6  25567960.084
 128292029.138 6  24413154.773
 14 10 27  0 27  0.0000000  0  8G30G26G17G15G28G24G01G12
 123910553.000 7  23579282.373
 107681359.656 9  20491079.060
 111474149.376 9  21212815.912
 114899250.830 8  21864598.388
 119671380.472 8  22772655.063
 127100703.134 6  24186458.406
 134351859.369 5  25566329.489
 128209979.696 6  24397541.829
 14 10 27  0 27 30.0000000  0  8G30G26G17G15G28G24G01G12
 123978542.071 7  23592220.318
 107723972.754 9  20499188.072
 111470533.430 9  21212127.599
 114858571.913 8  21856857.467
 119738885.277 8  22785501.248
 127017845.391 6  24170689.901
 134343737.741 6  25564785.622
 128128107.315 6  24381961.517
 14 10 27  0 28  0.0000000  0  8G30G26G17G15G28G24G01G12
 124046705.216 7  23605191.913
 107767172.317 9  20507408.892
 111467475.707 9  21211545.685
 114818401.383 8  21849213.474
 119806421.777 8  22798352.900
 126934972.052 6  24154921.079
 134336069.340 6  25563327.701
 128046422.999 6  24366417.904
 14 10 27  0 28 30.0000000  0  8G30G26G17G15G28G24G01G12
 124115048.614 7  23618196.944
 107810963.253 9  20515741.966
 111464982.182 9  21211071.268
 114778746.639 8  21841666.949
 119873994.705 8  22811211.539
 126852089.146 6  24139147.715
 134328861.459 6  25561956.503
 127964933.065 6  24350910.980
 14 10 27  0 29  0.0000000  0  8G30G26G17G15G28G24G01G12
 124183562.093 7  23631233.998
 107855333.933 9  20524185.508
 111463042.348 9  21210701.946
 114739598.691 8  21834217.711
 119941592.700 8  22824075.261
 126769187.268 6  24123372.789
 134322105.159 6  25560669.274
 127883627.928 6  24335439.069
 14 10 27  0 29 30.0000000  0  8G30G26G17G15G28G24G01G12
 124252238.302 7  23644302.887
 107900275.590 9  20532737.381
 111461648.878 8  21210436.882
 114700951.991 8  21826863.364
 120009207.408 7  22836941.205
 126686260.026 6  24107592.980
 134315794.065 6  25559466.157
 127802500.226 7  24320001.447
 14 10 27  0 30  0.0000000  0  8G30G26G17G15G28G24G01G12
 124321087.216 7  23657404.629
 107945796.730 9  20541399.720
 111460811.841 8  21210277.535
 114662817.783 8  21819606.541
 120076847.436 8  22849812.989
 126603318.466 6  24091810.110
 134309939.204 5  25558353.845
 127721560.557 7  24304599.002
 14 10 27  0 30 30.0000000  0  8G30G26G17G15G28G24G01G12
 124390104.822 7  23670538.217
 107991891.868 9  20550171.520
 111460526.916 8  21210223.395
 114625193.223 8  21812446.968
 120144507.264 8  22862688.242
 126520358.995 6  24076023.933
 134304537.657 6  25557326.247
 127640805.007 6  24289230.236
 14 10 27  0 31  0.0000000  0  9G30G26G17G15G06G28G24G01G12
 124459293.435 7  23683705.642
 108038561.875 9  20559052.385
 111460796.261 8  21210274.779
 114588081.856 8  21805385.159
 133893579.485 6  25479101.872
 120212188.332 8  22875567.727
 126437384.325 6  24060233.126
 134299592.788 5  25556383.781
 127560236.382 6  24273898.699
 14 10 27  0 31 30.0000000  0  9G30G26G17G15G06G28G24G01G12
 124528656.598 7  23696904.232
 108085808.744 9  20568043.479
 111461623.481 8  21210432.033
 114551488.581 8  21798421.267
 133818881.970 6  25464886.873
 120279892.811 8  22888451.073
 126354399.555 6  24044441.421
 134295109.048 5  25555528.560
 127479858.454 6  24258602.796
 14 10 27  0 32  0.0000000  0  9G30G26G17G15G06G28G24G01G12
 124598190.465 7  23710135.946
 108133627.151 9  20577142.769
 111463004.222 9  21210694.727
 114515410.856 8  21791556.231
 133744016.458 6  25450640.762
 120347615.878 8  22901338.394
 126271401.443 6  24028648.687
 134291083.702 6  25554765.483
 127399668.275 6  24243344.198
 14 10 27  0 32 30.0000000  0  9G30G26G17G15G06G28G24G01G12
 124667894.576 7  23723400.117
 108182015.094 9  20586350.669
 111464937.928 9  21211062.739
 114479849.280 8  21784788.895
 133668984.836 6  25436361.964
 120415355.844 8  22914229.146
 126188390.294 6  24012852.292
 134287517.268 6  25554086.228
 127319665.021 7  24228120.939
 14 10 27  0 33  0.0000000  0  9G30G26G17G15G06G28G24G01G12
 124737767.204 7  23736695.894
 108230969.306 9  20595666.770
 111467422.783 9  21211535.693
 114444803.854 8  21778119.955
 133593787.637 6  25422051.732
 120483109.739 8  22927121.994
 126105364.634 6  23997051.914
 134284408.888 5  25553494.535
 127239847.468 7  24212931.827
 14 10 27  0 33 30.0000000  0  9G30G26G17G15G06G28G24G01G12
 124807814.230 7  23750025.740
 108280494.020 9  20605090.703
 111470464.153 9  21212113.884
 114410281.340 8  21771550.674
 133518433.286 6  25407712.801
 120550882.278 8  22940019.065
 126022331.786 6  23981251.630
 134281765.517 6  25552992.644
 127160221.822 7  24197779.570
 14 10 27  0 34  0.0000000  0  9G30G26G17G15G06G28G24G01G12
 124878030.730 7  23763387.812
 108330582.760 9  20614622.507
 111474056.943 9  21212797.922
 114376277.930 8  21765079.712
 133442919.289 6  25393342.981
 120618667.471 8  22952917.890
 125939287.656 6  23965448.491
 134279583.184 5  25552575.511
 127080783.638 7  24182662.620
 14 10 27  0 34 30.0000000  0  9G30G26G17G15G06G28G24G01G12
 124948417.452 7  23776781.065
 108381234.654 9  20624261.001
 111478201.528 9  21213586.744
 114342795.850 8  21758708.474
 133367248.770 6  25378943.088
 120686465.125 7  22965819.382
 125856233.773 6  23949643.244
 134277863.404 5  25552249.650
 127001534.059 7  24167580.714
 14 10 27  0 35  0.0000000  0  9G30G26G17G15G06G28G24G01G12
 125018978.021 7  23790208.941
 108432451.726 9  20634007.421
 111482901.566 9  21214481.051
 114309839.993 8  21752437.196
 133291427.800 6  25364513.609
 120754277.780 7  22978723.722
 125773174.848 6  23933837.677
 134276610.903 5  25552010.404
 126922476.557 6  24152536.159
 14 10 27  0 35 30.0000000  0  9G30G26G17G15G06G28G24G01G12
 125089711.151 7  23803669.012
 108484231.117 9  20643860.586
 111488155.072 9  21215480.690
 114277410.034 8  21746265.955
 133215457.620 6  25350059.754
 120822103.037 7  22991630.716
 125690110.013 6  23918031.067
 134275825.113 5  25551859.605
 126843610.620 6  24137527.744
 14 10 27  0 36  0.0000000  0  9G30G26G17G15G06G28G24G01G12
 125160612.042 7  23817161.087
 108536566.274 9  20653819.516
 111493956.996 9  21216584.748
 114245502.550 8  21740194.675
 133139335.772 6  25335573.117
 120889934.770 7  23004538.341
 125607036.078 6  23902222.996
 134275502.231 5  25551800.877
 126764931.701 7  24122556.497
 14 10 27  0 36 30.0000000  0  9G30G26G17G15G06G28G24G01G12
 125231683.945 7  23830685.034
 108589458.841 9  20663884.832
 111500310.373 9  21217793.801
 114214121.886 8  21734222.588
 133063068.141 6  25321059.897
 120957775.244 7  23017447.916
 125523956.765 6  23886413.162
 134275646.393 5  25551826.311
 126686443.242 7  24107621.446
 14 10 27  0 37  0.0000000  0  9G30G26G17G15G06G28G24G01G12
 125302933.084 7  23844244.034
 108642913.233 9  20674057.130
 111507220.900 8  21219108.787
 114183275.379 8  21728352.299
 132986663.423 6  25306519.434
 121025630.023 7  23030360.171
 125440879.423 6  23870603.469
 134276264.576 5  25551944.792
 126608151.666 7  24092723.122
 14 10 27  0 37 30.0000000  0  9G30G26G17G15G06G28G24G01G12
 125374354.312 7  23857833.965
 108696922.743 9  20684334.632
 111514683.126 8  21220528.982
 114152958.782 8  21722583.835
 132910119.019 6  25291953.509
 121093492.687 7  23043274.408
 125357799.566 6  23854794.833
 134277352.517 6  25552152.884
 126530052.519 7  24077862.016
 14 10 27  0 38  0.0000000  0  9G30G26G17G15G06G28G24G01G12
 125445940.994 7  23871457.302
 108751478.942 9  20694716.231
 111522689.689 9  21222052.200
 114123166.803 8  21716914.428
 132833430.780 6  25277359.816
 121161355.737 7  23056187.662
 125274711.814 6  23838984.497
 134278904.355 5  25552444.912
 126452139.244 7  24063034.900
 14 10 27  0 38 30.0000000  0  9G30G26G17G15G06G28G24G01G12
 125517702.719 7  23885113.508
 108806589.641 9  20705203.432
 111531249.623 8  21223681.073
 114093910.227 8  21711347.029
 132756610.952 6  25262741.782
 121229227.461 7  23069104.254
 125191626.711 6  23823173.378
 134280930.445 5  25552832.908
 126374421.694 7  24048244.872
 14 10 27  0 39  0.0000000  0  9G30G26G17G15G06G28G24G01G12
 125589621.726 7  23898799.767
 108862235.394 9  20715792.540
 111540345.388 9  21225411.976
 114065172.077 8  21705878.063
 132679644.219 6  25248093.337
 121297089.233 7  23082017.051
 125108527.277 6  23807360.516
 134283413.975 6  25553307.352
 126296882.183 6  24033488.759
 14 10 27  0 39 30.0000000  0  9G30G26G17G15G06G28G24G01G12
 125661713.611 7  23912518.052
 108918430.033 9  20726485.985
 111549992.230 9  21227248.154
 114036969.429 8  21700511.693
 132602548.861 6  25233425.415
 121364955.797 7  23094931.605
 125025430.678 6  23791547.284
 134286371.189 5  25553868.993
 126219537.276 7  24018771.051
 14 10 27  0 40  0.0000000  0  9G30G26G17G15G06G28G24G01G12
 125733982.481 7  23926269.620
 108975175.900 9  20737284.470
 111560193.434 9  21229189.137
 114009307.009 8  21695247.664
 132525331.535 5  25218728.231
 121432830.386 7  23107848.450
 124942342.008 6  23775735.918
 134289806.958 5  25554521.496
 126142390.825 6  24004090.066
 14 10 27  0 40 30.0000000  0  9G30G26G17G15G06G28G24G01G12
 125806422.076 7  23940054.935
 109032464.822 9  20748186.158
 111570942.183 9  21231234.595
 113982179.722 8  21690085.841
 132447988.539 6  25204011.255
 121500705.768 7  23120764.333
 124859255.809 6  23759924.738
 134293715.727 5  25555261.825
 126065436.940 6  23989448.428
 14 10 27  0 41  0.0000000  0  9G30G26G17G15G06G28G24G01G12
 125879036.634 7  23953872.751
 109090299.302 9  20759191.724
 111582241.987 9  21233384.864
 113955592.863 8  21685026.427
 132370526.876 5  25189271.006
 121568585.303 7  23133681.181
 124776177.140 6  23744115.809
 134298102.572 5  25556098.351
 125988680.097 7  23974842.392
 14 10 27  0 41 30.0000000  0  9G30G26G17G15G06G28G24G01G12
 125951828.582 7  23967725.338
 109148679.968 9  20770301.133
 111594094.404 9  21235640.073
 113929549.965 8  21680070.839
 132292951.505 6  25174509.132
 121636470.405 7  23146599.008
 124693109.724 6  23728308.084
 134302970.434 5  25557026.282
 125912123.166 7  23960272.643
 14 10 27  0 42  0.0000000  0  9G30G26G17G15G06G28G24G01G12
 126024791.694 7  23981608.845
 109207598.659 9  20781513.070
 111606493.442 9  21237999.758
 113904045.801 8  21675217.518
 132215258.897 6  25159724.219
 121704354.019 7  23159517.467
 124610048.260 6  23712501.367
 134308313.898 5  25558047.034
 125835760.367 6  23945740.300
 14 10 27  0 42 30.0000000  0  9G30G26G17G15G06G28G24G01G12
 126097918.291 7  23995524.370
 109267045.930 9  20792825.408
 111619430.713 9  21240461.712
 113879073.355 8  21670465.046
 132137444.064 6  25144918.261
 121772227.679 7  23172433.924
 124526986.454 6  23696696.372
 134314126.000 5  25559147.990
 125759583.790 6  23931244.277
 14 10 27  0 43  0.0000000  0  9G30G26G17G15G06G28G24G01G12
 126171218.069 7  24009473.682
 109327029.508 9  20804240.114
 111632915.349 9  21243027.629
 113854643.449 8  21665816.153
 132059519.297 5  25130086.306
 121840100.044 7  23185348.777
 124443935.257 6  23680892.312
 134320416.969 5  25560346.280
 125683604.038 6  23916786.861
 14 10 27  0 43 30.0000000  0  9G30G26G17G15G06G28G24G01G12
 126244686.276 7  24023453.553
 109387542.867 9  20815755.219
 111646941.690 9  21245696.974
 113830752.450 8  21661269.556
 131981482.692 6  25115237.249
 121907965.942 7  23198263.469
 124360890.817 6  23665088.599
 134327182.823 5  25561633.166
 125607816.180 6  23902364.824
 14 10 27  0 44  0.0000000  0  9G30G26G17G15G06G28G24G01G12
 126318328.824 7  24037468.423
 109448589.949 9  20827372.453
 111661515.092 9  21248470.086
 113807407.017 8  21656827.241
 131903342.778 6  25100369.461
 121975830.227 7  23211177.361
 124277860.299 6  23649288.418
 134334429.989 6  25563013.842
 125532226.060 6  23887980.775
 14 10 27  0 44 30.0000000  0  9G30G26G17G15G06G28G24G01G12
 126392148.223 6  24051514.682
 109510171.403 9  20839090.856
 111676637.670 9  21251348.037
 113784610.690 8  21652489.484
 131825104.906 6  25085480.226
 122043694.622 7  23224091.900
 124194847.447 6  23633492.380
 134342161.641 6  25564484.062
 125456837.662 7  23873635.633
 14 10 27  0 45  0.0000000  0  9G30G26G17G15G06G28G24G01G12
 126466144.313 6  24065595.770
 109572285.094 9  20850910.392
 111692308.554 9  21254329.943
 113762364.077 8  21648256.136
 131746771.446 6  25070572.726
 122111558.079 7  23237006.076
 124111853.243 6  23617699.143
 134350378.168 5  25566046.841
 125381650.551 7  23859327.787
 14 10 27  0 45 30.0000000  0  9G30G26G17G15G06G28G24G01G12
 126540317.879 6  24079710.870
 109634929.810 9  20862831.571
 111708527.649 9  21257416.409
 113740668.753 8  21644127.008
 131668346.104 6  25055647.527
 122179420.410 7  23249919.321
 124028879.963 7  23601909.648
 134359081.026 5  25567704.251
 125306665.766 7  23845058.000
 14 10 27  0 46  0.0000000  0  9G30G26G17G15G06G28G24G01G12
 126614650.279 6  24093855.005
 109698085.069 9  20874849.448
 111725275.735 9  21260603.475
 113719507.212 8  21640100.130
 131589812.983 6  25040705.874
 122247262.467 7  23262829.539
 123945909.197 6  23586121.499
 134368252.039 5  25569447.737
 125231864.717 7  23830823.694
 14 10 27  0 46 30.0000000  0  9G30G26G17G15G06G28G24G01G12
 126689152.963 7  24108032.515
 109761760.301 9  20886966.463
 111742563.805 9  21263893.041
 113698891.459 8  21636177.721
 131511186.347 6  25025744.158
 122315095.085 7  23275738.163
 123862954.765 7  23570335.891
 134377903.211 6  25571287.311
 125157259.264 6  23816625.227
 14 10 27  0 47  0.0000000  0  9G30G26G17G15G06G28G24G01G12
 126763828.731 7  24122244.382
 109825956.302 9  20899182.760
 111760393.585 9  21267286.013
 113678825.396 8  21632359.519
 131432471.772 6  25010762.992
 122382920.473 7  23288644.212
 123780020.069 6  23554553.461
 134388037.946 5  25573213.862
 125082852.674 6  23802466.143
 14 10 27  0 47 30.0000000  0  9G30G26G17G15G06G28G24G01G12
 126838683.372 7  24136487.710
 109890676.986 9  20911498.769
 111778769.968 9  21270782.788
 113659315.515 8  21628647.145
 131353677.893 6  24995770.120
 122450743.274 7  23301550.913
 123697112.107 6  23538776.625
 134398662.489 5  25575234.858
 125008650.640 7  23788347.073
 14 10 27  0 48  0.0000000  0  9G30G26G17G15G06G28G24G01G12
 126913707.673 6  24150763.984
 109955911.034 9  20923912.245
 111797683.637 9  21274382.178
 113640353.332 8  21625038.111
 131274798.224 6  24980759.474
 122518553.754 7  23314454.663
 123614222.983 6  23523003.069
 134409768.195 6  25577349.547
 124934644.547 7  23774264.724
 14 10 27  0 48 30.0000000  0  9G30G26G17G15G06G28G24G01G12
 126988902.946 7  24165074.665
 110021657.747 9  20936423.424
 111817134.861 9  21278083.383
 113621940.938 8  21621534.393
 131195837.087 6  24965735.159
 122586352.585 7  23327356.118
 123531356.142 6  23507234.324
 134421356.788 5  25579554.128
 124860835.689 7  23760219.454
 14 10 27  0 49  0.0000000  0  9G30G26G17G15G06G28G24G01G12
 127064267.601 7  24179415.221
 110087913.532 9  20949031.352
 111837121.125 9  21281886.838
 113604077.630 8  21618134.936
 131116795.674 6  24950692.290
 122654137.518 7  23340254.862
 123448510.540 6  23491469.582
 134433427.170 6  25581853.782
 124787223.253 7  23746210.724
 14 10 27  0 49 30.0000000  0  9G30G26G17G15G06G28G24G01G12
 127139802.650 7  24193789.208
 110154677.430 9  20961736.045
 111857642.570 9  21285792.016
 113586765.265 8  21614840.774
 131037677.882 6  24935637.068
 122721908.895 7  23353151.038
 123365688.344 6  23475708.939
 134445980.761 6  25584243.317
 124713808.276 7  23732240.011
 14 10 27  0 50  0.0000000  0  9G30G26G17G15G06G28G24G01G12
 127215506.890 7  24208194.685
 110221946.056 9  20974537.026
 111878697.324 9  21289798.268
 113570003.240 8  21611650.953
 130958485.417 6  24920566.772
 122789664.935 7  23366045.612
 123282890.014 7  23459954.275
 134459016.789 6  25586721.490
 124640589.251 7  23718306.245
 14 10 27  0 50 30.0000000  0  9G30G26G17G15G06G28G24G01G12
 127291381.740 7  24222634.026
 110289718.901 8  20987433.614
 111900286.280 9  21293906.606
 113553793.719 8  21608565.930
 130879222.600 6  24905484.750
 122857406.679 6  23378936.214
 123200118.241 7  23444202.471
 134472537.226 6  25589296.128
 124567568.665 7  23704410.976
 14 10 27  0 51  0.0000000  0  9G30G26G17G15G06G28G24G01G12
 127367432.939 6  24237105.804
 110357999.571 9  21000427.061
 111922414.233 9  21298117.428
 113538142.983 8  21605587.966
 130799898.064 6  24890389.452
 122925138.781 7  23391825.607
 123117380.425 7  23428458.591
 134486548.072 6  25591962.041
 124494752.343 7  23690555.166
 14 10 27  0 51 30.0000000  0  9G30G26G17G15G06G28G24G01G12
 127443653.541 6  24251610.140
 110426779.017 9  21013515.493
 111945073.095 9  21302429.002
 113523044.803 8  21602715.149
 130720507.816 6  24875280.801
 122992853.827 7  23404710.765
 123034670.579 7  23412718.442
 134501042.749 6  25594722.612
 124422133.637 7  23676736.256
 14 10 27  0 52  0.0000000  0  9G30G26G17G15G06G28G24G01G12
 127520045.672 6  24266146.928
 110496057.260 9  21026698.507
 111968263.947 9  21306842.525
 113508502.396 8  21599947.413
 130641056.897 6  24860162.377
 123060553.633 7  23417593.867
 122951992.588 7  23396984.906
 134516023.885 6  25597571.436
 124349714.542 7  23662955.651
 14 10 27  0 52 30.0000000  0  9G30G26G17G15G06G28G24G01G12
 127596609.112 6  24280716.166
 110565832.132 9  21039976.443
 111991986.446 9  21311356.289
 113494515.635 8  21597285.781
 130561548.125 6  24845031.805
 123128237.223 7  23430473.098
 122869347.338 7  23381258.289
 134531491.654 5  25600513.522
 124277495.425 7  23649213.448
 14 10 27  0 53  0.0000000  0  9G30G26G17G15G06G28G24G01G12
 127673345.659 6  24295317.809
 110636103.169 9  21053348.778
 112016241.065 9  21315971.825
 113481087.157 8  21594730.593
 130481986.174 6  24829891.732
 123195906.037 7  23443350.762
 122786738.437 7  23365538.735
 134547448.081 6  25603550.521
 124205478.258 7  23635508.498
 14 10 27  0 53 30.0000000  0  9G30G26G17G15G06G28G24G01G12
 127750257.513 7  24309956.615
 110706870.455 9  21066815.030
 112041028.730 9  21320689.023
 113468219.664 8  21592282.019
 130402376.290 6  24814742.890
 123263561.455 7  23456224.632
 122704169.157 7  23349826.309
 134563895.654 6  25606680.447
 124133665.640 7  23621842.462
 14 10 27  0 54  0.0000000  0  9G30G26G17G15G06G28G24G01G12
 127827334.432 6  24324623.115
 110778121.690 9  21080373.572
 112066338.955 9  21325505.335
 113455903.448 8  21589938.558
 130322711.223 6  24799583.960
 123331192.822 7  23469094.579
 122621630.963 7  23334119.004
 134580824.530 6  25609902.922
 124062047.680 7  23608214.507
 14 10 27  0 54 30.0000000  0  9G30G26G17G15G06G28G24G01G12
 127904569.614 6  24339319.251
 110849847.990 9  21094022.992
 112092163.783 9  21330419.721
 113444132.803 8  21587698.988
 130242987.178 6  24784412.169
 123398793.177 7  23481958.190
 122539118.580 7  23318417.049
 134598228.214 6  25613213.155
 123990617.653 7  23594621.030
 14 10 27  0 55  0.0000000  0  9G30G26G17G15G06G28G24G01G12
 127981974.647 6  24354049.120
 110922058.688 9  21107764.146
 112118513.678 9  21335434.037
 113432919.612 8  21585564.987
 130163218.776 6  24769232.230
 123466373.311 7  23494819.140
 122456645.215 7  23302722.564
 134616118.529 6  25616617.955
 123919387.279 7  23581066.588
 14 10 27  0 55 30.0000000  0  9G30G26G17G15G06G28G24G01G12
 128059544.324 6  24368810.379
 110994746.400 9  21121595.958
 112145382.760 9  21340547.059
 113422259.203 8  21583536.277
 130083403.838 6  24754043.149
 123533927.677 7  23507674.253
 122374206.685 7  23287036.115
 134634490.422 6  25620114.384
 123848351.663 7  23567548.737
 14 10 27  0 56  0.0000000  0  9G30G26G17G15G06G28G24G01G12
 128137285.477 6  24383602.026
 111067915.862 9  21135519.905
 112172776.682 9  21345759.736
 113412158.985 8  21581614.350
 130003552.289 6  24738846.953
 123601462.661 7  23520524.801
 122291811.674 7  23271355.729
 134653351.182 6  25623702.847
 123777518.415 7  23554069.622
 14 10 27  0 56 30.0000000  0  9G30G26G17G15G06G28G24G01G12
 128215198.378 6  24398429.910
 111141565.164 9  21149534.756
 112200694.823 8  21351072.311
 113402619.560 8  21579798.692
 129923667.490 6  24723647.610
 123668978.009 7  23533373.448
 122209462.081 7  23255685.914
 134672701.247 5  25627383.164
 123706887.514 7  23540628.892
 14 10 27  0 57  0.0000000  0  9G30G26G17G15G06G28G24G01G12
 128293275.939 6  24413286.243
 111215684.884 9  21163639.228
 112229128.862 9  21356483.312
 113393634.543 8  21578089.114
 129843745.348 6  24708439.541
 123736466.381 7  23546215.403
 122127152.307 7  23240023.019
 134692533.651 5  25631157.662
 123636452.355 7  23527226.043
 14 10 27  0 57 30.0000000  0  9G30G26G17G15G06G28G24G01G12
 128371515.332 6  24428176.813
 111290270.160 9  21177832.508
 112258075.185 9  21361991.913
 113385201.248 8  21576484.676
 129763786.232 7  24693224.421
 123803924.465 7  23559052.551
 122044880.821 7  23224367.790
 134712845.822 6  25635022.446
 123566210.559 7  23513860.255
 14 10 27  0 58  0.0000000  0  9G30G26G17G15G06G28G24G01G12
 128449935.055 6  24443098.709
 111365337.315 9  21192117.291
 112287551.055 9  21367600.781
 113377339.052 8  21574988.612
 129683811.732 7  24678004.717
 123871370.231 7  23571886.848
 121962668.307 7  23208722.621
 134733656.549 6  25638983.228
 123496180.558 7  23500534.018
 14 10 27  0 58 30.0000000  0  9G30G26G17G15G06G28G24G01G12
 128528516.133 6  24458053.891
 111440865.006 9  21206489.887
 112317536.935 8  21373306.817
 113370029.020 9  21573597.810
 129603805.920 7  24662780.607
 123938784.555 7  23584715.837
 121880496.756 7  23193086.366
 134754946.870 6  25643034.467
 123426343.569 7  23487243.863
 14 10 27  0 59  0.0000000  0  9G30G26G17G15G06G28G24G01G12
 128607261.598 6  24473037.297
 111516854.347 9  21220950.132
 112348034.531 8  21379109.853
 113363275.103 9  21572312.478
 129523775.180 6  24647550.628
 124006170.093 7  23597538.377
 121798371.133 7  23177458.118
 134776720.137 5  25647175.988
 123356703.081 7  23473990.648
 14 10 27  0 59 30.0000000  0  9G30G26G17G15G06G28G24G01G12
 128686177.037 6  24488054.150
 111593308.446 9  21235498.720
 112379048.421 9  21385012.144
 113357083.191 8  21571133.952
 129443728.029 6  24632318.100
 124073532.260 7  23610357.678
 121716298.748 7  23161839.614
 134798981.943 6  25651413.146
 123287265.108 7  23460777.192
 14 10 27  1  0  0.0000000  0  9G30G26G17G15G06G28G24G01G12
 128765255.594 6  24503102.882
 111670218.365 9  21250134.323
 112410570.615 9  21391010.499
 113351446.738 8  21570061.134
 129363660.874 6  24617081.967
 124140863.717 7  23623170.226
 121634274.337 7  23146230.951
 134821725.664 6  25655740.785
 123218022.927 7  23447601.133
 14 10 27  1  0 30.0000000  0  9G30G26G17G15G06G28G24G01G12
 128844508.970 6  24518183.988
 111747593.396 9  21264858.158
 112442611.999 9  21397107.581
 113346377.595 8  21569096.520
 129283588.520 6  24601844.802
 124208175.546 7  23635978.952
 121552311.016 7  23130633.851
 134844962.929 6  25660162.951
 123148988.522 7  23434465.144
 14 10 27  1  1  0.0000000  0  9G30G26G17G15G06G28G24G01G12
 128923924.956 6  24533296.870
 111825419.246 9  21279668.069
 112475158.935 9  21403301.385
 113341863.799 8  21568237.612
 129203502.032 6  24586604.224
 124275455.663 7  23648782.771
 121470398.853 7  23115046.760
 134868681.840 5  25664675.025
 123080150.146 7  23421364.897
 14 10 27  1  1 30.0000000  0  9G30G26G17G15G06G28G24G01G12
 129003504.226 6  24548440.797
 111903694.252 9  21294563.282
 112508210.995 9  21409590.663
 113337907.082 8  21567484.246
 129123405.205 6  24571361.741
 124342704.437 7  23661579.263
 121388539.610 7  23099469.788
 134892883.018 6  25669281.760
 123011508.419 7  23408302.677
 14 10 27  1  2  0.0000000  0  9G30G26G17G15G06G28G24G01G12
 129083246.392 7  24563614.199
 111982415.818 9  21309543.389
 112541766.415 9  21415976.228
 113334506.971 8  21566837.590
 129043300.959 6  24556118.876
 124409921.782 7  23674370.612
 121306735.046 7  23083902.580
 134917566.203 6  25673980.158
 122943063.481 7  23395277.628
 14 10 27  1  2 30.0000000  0  9G30G26G17G15G06G28G24G01G12
 129163151.358 7  24578819.876
 112061581.510 9  21324608.402
 112575824.547 9  21422457.462
 113331663.690 8  21566296.325
 128963192.396 7  24540876.418
 124477106.135 7  23687154.438
 121224986.679 7  23068346.663
 134942731.327 6  25678770.702
 122874814.977 7  23382290.534
 14 10 27  1  3  0.0000000  0  9G30G26G17G15G06G28G24G01G12
 129243220.797 7  24594056.097
 112141190.783 9  21339757.561
 112610385.638 9  21429034.162
 113329379.231 8  21565862.024
 128883084.440 7  24525630.447
 124544259.680 7  23699934.224
 121143297.609 7  23052801.605
 134968380.077 6  25683649.669
 122806765.259 7  23369341.426
 14 10 27  1  3 30.0000000  0  9G30G26G17G15G06G28G24G01G12
 129323444.353 7  24609322.893
 112221231.086 9  21354988.591
 112645438.135 9  21435704.339
 113327643.227 8  21565531.667
 128802970.017 7  24510384.511
 124611371.761 7  23712705.290
 121061659.812 7  23037266.595
 134994502.140 5  25688620.411
 122738904.158 7  23356427.346
 14 10 27  1  4  0.0000000  0  9G30G26G17G15G06G28G24G01G12
 129403826.148 7  24624619.107
 112301704.141 9  21370302.194
 112680985.231 9  21442468.443
 113326460.542 8  21565306.476
 128722856.430 6  24495139.469
 124678446.217 7  23725469.337
 120980078.881 7  23021742.229
 135021101.788 6  25693681.884
 122671236.468 7  23343550.322
 14 10 27  1  4 30.0000000  0  9G30G26G17G15G06G28G24G01G12
 129484373.245 7  24639946.946
 112382614.828 9  21385699.024
 112717032.646 9  21449328.077
 113325838.134 8  21565187.989
 128642754.140 7  24479897.416
 124745490.118 7  23738227.184
 120898563.651 7  23006230.138
 135048185.930 6  25698835.532
 122603769.233 7  23330713.157
 14 10 27  1  5  0.0000000  0  9G30G26G17G15G06G28G24G01G12
 129565084.860 6  24655305.269
 112463960.064 9  21401178.361
 112753578.771 8  21456283.076
 113325775.702 8  21565176.304
 128562665.623 7  24464658.609
 124812502.568 7  23750979.207
 120817115.428 7  22990731.093
 135075753.840 5  25704081.241
 122536502.063 7  23317913.398
 14 10 27  1  5 30.0000000  0  9G30G26G17G15G06G28G24G01G12
 129645954.034 6  24670693.134
 112545730.468 9  21416738.846
 112790614.659 9  21463330.616
 113326266.346 8  21565269.919
 128482587.139 6  24449419.506
 124879476.150 7  23763723.377
 120735728.813 7  22975243.771
 135103798.415 5  25709417.883
 122469428.089 7  23305148.666
 14 10 27  1  6  0.0000000  0  9G30G26G17G15G06G28G24G01G12
 129726979.574 6  24686113.237
 112627922.592 9  21432379.593
 112828138.776 8  21470470.850
 113327308.841 8  21565467.843
 128402520.908 6  24434181.465
 124946409.794 7  23776461.225
 120654404.171 7  22959768.121
 135132318.437 6  25714846.372
 122402546.447 7  23292420.513
 14 10 27  1  6 30.0000000  0  9G30G26G17G15G06G28G24G01G12
 129808171.196 6  24701563.435
 112710543.964 8  21448101.720
 112866159.120 9  21477705.915
 113328913.556 9  21565773.005
 128322479.979 6  24418950.810
 125013313.175 7  23789192.447
 120573153.653 7  22944306.634
 135161323.602 6  25720365.136
 122335867.170 7  23279731.456
 14 10 27  1  7  0.0000000  0  9G30G26G17G15G06G28G24G01G12
 129889520.806 6  24717042.558
 112793584.123 9  21463903.687
 112904666.666 8  21485033.600
 113331072.314 8  21566184.196
 128242459.523 6  24403723.869
 125080178.040 7  23801915.843
 120491971.162 7  22928858.014
 135190805.747 5  25725974.239
 122269382.317 7  23267080.171
 14 10 27  1  7 30.0000000  0  9G30G26G17G15G06G28G24G01G12
 129971024.042 6  24732553.395
 112877036.371 8  21479784.155
 112943655.817 9  21492453.274
 113333781.143 8  21566699.615
 128162458.652 6  24388500.738
 125146999.914 7  23814632.218
 120410853.990 7  22913422.084
 135220760.467 5  25731676.122
 122203087.681 7  23254465.745
 14 10 27  1  8  0.0000000  0  9G30G26G17G15G06G28G24G01G12
 130052677.819 6  24748091.292
 112960895.317 8  21495742.193
 112983121.970 9  21499963.414
 113337036.703 8  21567319.158
 128082477.546 6  24373281.502
 125213775.414 7  23827339.241
 120329800.771 7  22897997.864
 135251184.469 5  25737465.132
 122136980.879 7  23241885.587
 14 10 27  1  8 30.0000000  0  9G30G26G17G15G06G28G24G01G12
 130134494.978 6  24763661.158
 113045171.512 8  21511779.101
 113023077.087 9  21507566.782
 113340851.970 8  21568045.037
 128002532.548 6  24358068.816
 125280517.727 7  23840039.060
 120248826.753 7  22882589.096
 135282090.550 5  25743346.558
 122071074.939 7  23229344.167
 14 10 27  1  9  0.0000000  0  9G30G26G17G15G06G28G24G01G12
 130216468.586 6  24779259.125
 113129855.620 8  21527894.223
 113063512.740 9  21515261.229
 113345220.181 8  21568876.616
 127922619.982 6  24342861.097
 125347219.556 6  23852731.674
 120167926.343 7  22867194.373
 135313471.549 5  25749317.090
 122005363.273 7  23216839.483
 14 10 27  1  9 30.0000000  0  9G30G26G17G15G06G28G24G01G12
 130298596.522 6  24794888.381
 113214943.320 8  21544085.762
 113104425.592 9  21523046.467
 113350139.398 8  21569812.600
 127842741.213 6  24327659.427
 125413879.034 7  23865416.640
 120087099.763 7  22851813.617
 135345325.354 5  25755378.927
 121939843.709 7  23204372.272
 14 10 27  1 10  0.0000000  0  9G30G26G17G15G06G28G24G01G12
 130380884.349 6  24810545.872
 113300437.674 8  21560355.062
 113145819.915 9  21530923.752
 113355614.946 8  21570854.404
 127762905.174 6  24312466.889
 125480501.678 6  23878093.902
 120006354.353 7  22836447.831
 135377657.106 6  25761530.716
 121874522.151 7  23191941.248
 14 10 27  1 10 30.0000000  0  9G30G26G17G15G06G28G24G01G12
 130463334.781 6  24826237.769
 113386339.188 8  21576701.374
 113187697.224 9  21538893.106
 113361649.977 8  21572002.940
 127683118.024 6  24297284.339
 125547090.172 7  23890766.221
 119925694.930 7  22821099.407
 135410469.570 6  25767775.949
 121809402.011 7  23179549.004
 14 10 27  1 11  0.0000000  0  9G30G26G17G15G06G28G24G01G12
 130545930.390 6  24841951.956
 113472627.983 8  21593121.487
 113230038.537 9  21546950.124
 113368226.642 8  21573254.371
 127603365.759 6  24282108.237
 125613626.908 7  23903428.305
 119845106.146 7  22805763.286
 135443744.971 5  25774105.539
 121744465.712 7  23167192.540
 14 10 27  1 11 30.0000000  0  9G30G26G17G15G06G28G24G01G12
 130628672.227 6  24857698.938
 113559302.974 8  21609615.281
 113272843.896 9  21555095.968
 113375346.430 8  21574609.052
 127523652.977 6  24266940.428
 125680113.398 7  23916080.187
 119764590.853 7  22790442.630
 135477484.464 5  25780529.645
 121679714.778 7  23154870.562
 14 10 27  1 12  0.0000000  0  9G30G26G17G15G06G28G24G01G12
 130711576.020 6  24873473.746
 113646377.344 8  21626185.200
 113316127.658 9  21563332.434
 113383024.678 8  21576069.962
 127443998.751 6  24251783.073
 125746565.147 7  23928725.878
 119684166.978 7  22775137.925
 135511703.264 6  25787039.898
 121615165.560 7  23142587.152
 14 10 27  1 12 30.0000000  0  9G30G26G17G15G06G28G24G01G12
 130794635.029 6  24889280.549
 113733842.145 8  21642828.926
 113359881.759 9  21571658.518
 113391254.763 8  21577636.644
 127364399.888 6  24236635.013
 125812975.668 7  23941363.672
 119603830.123 7  22759850.422
 135546394.508 5  25793640.943
 121550811.114 7  23130340.741
 14 10 27  1 13  0.0000000  0  9G30G26G17G15G06G28G24G01G12
 130877852.586 6  24905116.028
 113821698.303 8  21659547.709
 113404108.242 9  21580074.271
 113400040.397 8  21579307.899
 127284863.184 6  24221498.990
 125879348.306 7  23953993.051
 119523585.029 7  22744580.202
 135581561.309 5  25800331.799
 121486655.130 7  23118132.085
 14 10 27  1 13 30.0000000  0  9G30G26G17G15G06G28G24G01G12
 130961223.276 6  24920982.863
 113909938.025 8  21676339.132
 113448800.342 9  21588578.800
 113409375.762 8  21581084.719
 127205386.699 6  24206375.584
 125945677.819 7  23966615.205
 119443428.796 7  22729326.923
 135617198.009 5  25807113.130
 121422692.587 7  23105960.984
 14 10 27  1 14  0.0000000  0  9G30G26G17G15G06G28G24G01G12
 131044751.199 6  24936875.886
 113998563.133 8  21693204.127
 113493960.875 9  21597172.816
 113419265.012 8  21582966.791
 127125978.068 6  24191264.469
 126011968.400 7  23979230.771
 119363367.184 7  22714092.234
 135653308.311 6  25813985.696
 121358928.076 7  23093826.477
 14 10 27  1 14 30.0000000  0  9G30G26G17G15G06G28G24G01G12
 131128434.007 6  24952801.718
 114087568.944 8  21710141.164
 113539586.312 9  21605855.030
 113429705.371 8  21584953.356
 127046638.530 6  24176166.985
 126078217.803 7  23991836.599
 119283400.547 7  22698874.520
 135689889.604 5  25820946.086
 121295359.308 7  23081730.162
 14 10 27  1 15  0.0000000  0  9G30G26G17G15G06G28G24G01G12
 131212267.192 6  24968753.743
 114176948.569 8  21727149.400
 113585670.548 9  21614624.470
 113440692.244 8  21587044.157
 126967367.042 6  24161081.336
 126144421.771 7  24004435.043
 119203526.307 7  22683675.573
 135726937.121 6  25827998.596
 121231982.409 7  23069670.270
 14 10 27  1 15 30.0000000  0  9G30G26G17G15G06G28G24G01G12
 131296252.633 7  24984737.621
 114266701.531 8  21744228.499
 113632214.123 9  21623481.631
 113452227.344 8  21589238.905
 126888169.014 6  24146011.496
 126210582.202 7  24017023.955
 119123748.540 7  22668494.359
 135764452.458 5  25835136.167
 121168799.346 7  23057647.113
 14 10 27  1 16  0.0000000  0  9G30G26G17G15G06G28G24G01G12
 131380388.499 6  25000747.073
 114356823.640 8  21761378.070
 113679214.148 9  21632425.554
 113464309.116 8  21591538.214
 126809046.145 6  24130954.076
 126276697.556 7  24029605.883
 119044067.496 7  22653332.279
 135802433.419 5  25842361.663
 121105808.648 7  23045659.555
 14 10 27  1 16 30.0000000  0  9G30G26G17G15G06G28G24G01G12
 131464675.047 7  25016786.986
 114447312.719 8  21778597.662
 113726668.997 9  21641455.791
 113476937.555 8  21593941.449
 126730002.282 6  24115912.910
 126342768.256 7  24042179.119
 118964485.806 7  22638187.575
 135840880.158 5  25849681.119
 121043010.500 7  23033709.562
 14 10 27  1 17  0.0000000  0  8G30G26G17G15G06G28G24G12
 131549115.199 6  25032854.246
 114538169.394 8  21795887.403
 113774580.418 9  21650572.733
 113490115.140 8  21596448.772
 126651043.949 6  24100887.538
 126408797.489 7  24054743.943
 118885008.465 7  22623063.371
 120980408.641 7  23021796.873
 14 10 27  1 17 30.0000000  0  8G30G26G17G15G06G28G24G12
 131633707.325 6  25048952.818
 114629389.714 8  21813245.849
 113822945.492 9  21659776.759
 113503840.107 8  21599060.798
 126572173.034 6  24085879.027
 126474783.680 7  24067300.840
 118805635.741 7  22607959.201
 120918001.709 7  23009921.871
 14 10 27  1 18  0.0000000  0  8G30G26G17G15G06G28G24G12
 131718448.831 6  25065077.524
 114720968.688 8  21830672.679
 113871760.072 9  21669065.662
 113518109.830 9  21601776.480
 126493390.623 6  24070888.335
 126540724.656 7  24079849.348
 118726367.448 7  22592874.803
 120855787.414 7  22998082.216
 14 10 27  1 18 30.0000000  0  8G30G26G17G15G06G28G24G12
 131803337.795 6  25081231.085
 114812902.029 8  21848167.411
 113921021.140 9  21678439.768
 113532922.074 8  21604595.149
 126414698.278 6  24055912.027
 126606618.695 7  24092388.410
 118647204.197 8  22577810.401
 120793763.972 7  22986278.546
 14 10 27  1 19  0.0000000  0  8G30G26G17G15G06G28G24G12
 131888372.723 6  25097412.973
 114905185.898 8  21865728.467
 113970725.793 9  21687898.249
 113548275.021 9  21607516.613
 126336098.203 7  24040954.849
 126672464.674 7  24104918.421
 118568146.619 8  22562766.867
 120731930.422 7  22974514.079
 14 10 27  1 19 30.0000000  0  8G30G26G17G15G06G28G24G12
 131973554.799 6  25113622.226
 114997819.161 8  21883356.023
 114020873.762 9  21697440.921
 113564169.210 8  21610541.168
 126257595.233 7  24026016.934
 126738264.255 7  24117440.456
 118489197.696 8  22547743.386
 120670288.096 7  22962782.663
 14 10 27  1 20  0.0000000  0  8G30G26G17G15G06G28G24G12
 132058878.945 6  25129858.147
 115090794.290 8  21901048.661
 114071458.457 9  21707067.142
 113580599.953 8  21613668.180
 126179187.839 7  24011096.090
 126804012.263 7  24129951.933
 118410354.828 8  22532740.210
 120608832.156 7  22951087.620
 14 10 27  1 20 30.0000000  0  8G30G26G17G15G06G28G24G12
 132144351.699 6  25146120.858
 115184115.546 8  21918806.644
 114122484.978 9  21716776.818
 113597573.405 8  21616897.834
 126100886.259 7  23996196.434
 126869715.652 7  24142454.707
 118331627.189 8  22517758.750
 120547569.473 7  22939430.372
 14 10 27  1 21  0.0000000  0  8G30G26G17G15G06G28G24G12
 132229969.994 6  25162413.894
 115277777.499 8  21936630.635
 114173949.020 9  21726570.171
 113615085.821 8  21620230.129
 126022691.084 7  23981316.071
 126935371.751 7  24154948.928
 118253014.238 8  22502798.303
 120486497.874 7  22927808.915
 14 10 27  1 21 30.0000000  0  8G30G26G17G15G06G28G24G12
 132315733.715 6  25178735.466
 115371777.711 8  21954517.688
 114225848.843 8  21736446.635
 113633137.073 8  21623665.049
 125944605.868 7  23966457.510
 127000981.007 7  24167433.750
 118174517.978 8  22487861.297
 120425616.777 8  22916223.781
 14 10 27  1 22  0.0000000  0  8G30G26G17G15G06G28G24G12
 132401641.187 6  25195082.054
 115466112.058 8  21972469.235
 114278181.393 9  21746404.875
 113651724.680 8  21627202.208
 125866632.529 7  23951619.628
 127066541.827 7  24179909.306
 118096138.249 8  22472946.168
 120364925.839 7  22904673.892
 14 10 27  1 22 30.0000000  0  8G30G26G17G15G06G28G24G12
 132487697.196 6  25211460.385
 115560782.990 8  21990484.302
 114330950.049 8  21756446.526
 113670853.429 8  21630842.623
 125788779.537 7  23936803.768
 127132059.514 7  24192376.821
 118017883.139 8  22458054.931
 120304429.552 7  22893162.227
 14 10 27  1 23  0.0000000  0  8G30G26G17G15G06G28G24G12
 132573891.760 5  25227861.282
 115655778.296 8  22008561.358
 114384143.531 8  21766568.649
 113690513.285 8  21634583.481
 125711040.736 7  23922011.450
 127197524.512 7  24204835.077
 117939744.976 8  22443185.705
 120244118.337 7  22881685.424
 14 10 27  1 23 30.0000000  0  8G30G26G17G15G06G28G24G12
 132660224.941 5  25244288.748
 115751095.532 8  22026700.069
 114437760.548 9  21776772.320
 113710703.506 8  21638425.159
 125633419.680 7  23907239.534
 127262937.312 7  24217282.221
 117861725.959 8  22428339.323
 120183992.505 7  22870244.113
 14 10 27  1 24  0.0000000  0  8G30G26G17G15G06G28G24G12
 132746701.142 5  25260746.735
 115846736.757 8  22044899.231
 114491803.444 8  21787056.140
 113731427.994 8  21642369.358
 125555924.552 7  23892492.254
 127328302.514 7  24229721.105
 117783832.968 8  22413516.539
 120124056.831 7  22858837.753
 14 10 27  1 24 30.0000000  0  8G30G26G17G15G06G28G24G12
 132833320.206 5  25277228.684
 115942699.566 8  22063161.008
 114546271.168 8  21797420.639
 113752686.504 8  21646415.062
 125478559.023 7  23877771.409
 127393620.742 6  24242150.267
 117706068.320 8  22398718.809
 120064311.503 7  22847468.974
 14 10 27  1 25  0.0000000  0  8G30G26G17G15G06G28G24G12
 132920081.791 6  25293740.839
 116038981.166 8  22081482.480
 114601161.829 8  21807866.250
 113774478.112 8  21650561.452
 125401326.352 7  23863074.110
 127458891.861 6  24254571.973
 117628433.998 8  22383945.220
 120004756.761 7  22836135.453
 14 10 27  1 25 30.0000000  0  8G30G26G17G15G06G28G24G12
 133006984.588 6  25310276.906
 116135577.963 8  22099864.520
 114656472.845 8  21818391.483
 113796801.085 8  21654809.398
 125324229.018 7  23848403.222
 127524115.268 6  24266982.691
 117550931.143 8  22369196.896
 119945391.413 7  22824838.939
 14 10 27  1 26  0.0000000  0  9G02G30G26G17G15G06G28G24G12
 130525179.497 6  24838113.895
 133094027.752 6  25326840.950
 116232486.710 8  22118305.579
 114712201.567 8  21828996.347
 113819653.459 8  21659157.713
 125247269.852 7  23833758.181
 127589290.396 6  24279385.847
 117473561.373 8  22354473.417
 119886215.175 7  22813579.281
 14 10 27  1 26 30.0000000  0  9G02G30G26G17G15G06G28G24G12
 130445539.213 5  24822954.933
 133181217.765 6  25343434.121
 116329711.627 8  22136806.804
 114768353.241 8  21839682.140
 113843042.045 8  21663608.735
 125170459.202 7  23819142.140
 127654424.142 6  24291779.667
 117396333.961 8  22339777.770
 119827234.905 7  22802355.049
 14 10 27  1 27  0.0000000  0  9G02G30G26G17G15G06G28G24G12
 130365768.432 6  24807778.365
 133268543.659 6  25360051.374
 116427239.403 8  22155365.625
 114824915.529 8  21850444.916
 113866955.446 8  21668159.453
 125093789.724 7  23804551.121
 127719506.320 6  24304163.163
 117319239.995 8  22325107.498
 119768439.991 8  22791167.097
 14 10 27  1 27 30.0000000  0  9G02G30G26G17G15G06G28G24G12
 130285872.599 6  24792574.193
 133356007.891 6  25376695.460
 116525070.164 8  22173982.490
 114881889.416 8  21861286.887
 113891395.309 8  21672810.033
 125017267.719 7  23789990.261
 127784539.848 6  24316540.236
 117242284.743 8  22310463.167
 119709833.047 8  22780014.456
 14 10 27  1 28  0.0000000  0  9G02G30G26G17G15G06G28G24G12
 130205856.943 6  24777348.155
 133443612.976 6  25393365.660
 116623204.024 8  22192656.306
 114939275.526 8  21872207.481
 113916363.611 8  21677561.420
 124940899.408 7  23775458.156
 127849527.688 6  24328905.162
 117165473.221 8  22295846.577
 119651417.310 7  22768898.131
 14 10 27  1 28 30.0000000  0  9G02G30G26G17G15G06G28G24G12
 130125718.599 6  24762097.967
 133531352.446 6  25410062.151
 116721632.203 8  22211386.826
 114997066.118 8  21883204.216
 113941853.022 8  21682411.705
 124864682.205 7  23760952.951
 127914464.067 6  24341264.497
 117088800.972 8  22281256.267
 119593186.517 8  22757816.736
 14 10 27  1 29  0.0000000  0  9G02G30G26G17G15G06G28G24G12
 130045465.331 6  24746824.390
 133619231.884 6  25426784.394
 116820357.965 8  22230173.779
 115055265.482 8  21894279.074
 113967869.237 8  21687362.802
 124788625.336 7  23746481.095
 127979355.079 6  24353611.601
 117012276.787 8  22266693.855
 119535146.824 7  22746771.827
 14 10 27  1 29 30.0000000  0  9G02G30G26G17G15G06G28G24G12
 129965098.298 6  24731532.567
 133707249.106 6  25443534.976
 116919376.887 8  22249016.038
 115113869.884 8  21905430.865
 113994409.033 8  21692412.730
 124712730.553 7  23732038.812
 128044199.075 6  24365951.389
 116935900.625 8  22252160.101
 119477295.853 7  22735764.231
 14 10 27  1 30  0.0000000  0  9G02G30G26G17G15G06G28G24G12
 129884616.413 6  24716216.380
 133795400.136 6  25460309.282
 117018682.470 8  22267913.807
 115172873.446 8  21916659.279
 114021467.892 8  21697562.195
 124636997.507 7  23717627.273
 128108992.521 7  24378281.429
 116859671.357 8  22237654.161
 119419630.249 7  22724789.853
 14 10 27  1 30 30.0000000  0  9G02G30G26G17G15G06G28G24G12
 129804024.566 6  24700881.378
 133883686.617 5  25477106.885
 117118274.214 8  22286865.249
 115232277.100 8  21927963.244
 114049046.741 8  21702810.303
 124561431.762 7  23703247.469
 128173738.050 7  24390602.417
 116783593.017 8  22223176.944
 119362152.616 7  22713852.096
 14 10 27  1 31  0.0000000  0  9G02G30G26G17G15G06G28G24G12
 129723326.888 6  24685525.332
 133972109.810 5  25493933.217
 117218150.967 8  22305870.948
 115292080.203 8  21939343.253
 114077146.471 8  21708157.222
 124486038.357 7  23688901.277
 128238437.388 7  24402913.539
 116707669.539 8  22208729.146
 119304864.219 7  22702950.765
 14 10 27  1 31 30.0000000  0  9G02G30G26G17G15G06G28G24G12
 129642521.878 6  24670149.312
 134060664.980 6  25510785.887
 117318305.678 8  22324930.222
 115352276.599 8  21950798.238
 114105761.411 8  21713602.574
 124410816.279 7  23674585.644
 128303086.406 7  24415216.769
 116631898.833 8  22194310.590
 119247760.157 7  22692083.925
 14 10 27  1 32  0.0000000  0  9G02G30G26G17G15G06G28G24G12
 129561610.477 7  24654752.021
 134149350.237 6  25527662.322
 117418734.084 8  22344040.842
 115412863.039 8  21962327.779
 114134889.223 8  21719145.410
 124335767.555 7  23660304.738
 128367683.710 7  24427508.643
 116556281.224 8  22179920.965
 119190839.569 7  22681252.817
 14 10 27  1 32 30.0000000  0  9G02G30G26G17G15G06G28G24G12
 129480599.480 6  24639336.025
 134238169.185 5  25544562.685
 117519437.606 8  22363204.622
 115473841.623 8  21973931.395
 114164532.795 8  21724786.418
 124260899.605 6  23646057.738
 128432233.844 7  24439791.899
 116480823.861 7  22165561.611
 119134106.428 7  22670456.685
 14 10 27  1 33  0.0000000  0  9G02G30G26G17G15G06G28G24G12
 129399490.955 6  24623901.524
 134327121.105 5  25561490.964
 117620413.078 8  22382419.088
 115535209.835 8  21985609.660
 114194690.696 8  21730525.545
 124186215.477 7  23631845.760
 128496736.505 7  24452066.361
 116405527.648 8  22151233.045
 119077560.510 7  22659696.590
 14 10 27  1 33 30.0000000  0  9G02G30G26G17G15G06G28G24G12
 129318284.639 6  24608448.683
 134416202.124 6  25578442.478
 117721654.488 8  22401684.606
 115596962.411 8  21997360.952
 114225358.667 8  21736361.727
 124111715.230 7  23617669.501
 128561188.730 6  24464331.481
 116330392.123 8  22136935.768
 119021198.396 7  22648970.370
 14 10 27  1 34  0.0000000  0  9G02G30G26G17G15G06G28G24G12
 129236985.471 6  24592977.238
 134505414.249 6  25595417.996
 117823161.349 8  22421001.107
 115659099.947 8  22009185.368
 114256537.260 8  21742294.576
 124037404.594 7  23603527.905
 128625592.837 6  24476586.649
 116255421.818 8  22122669.379
 118965022.185 7  22638281.213
 14 10 27  1 34 30.0000000  0  9G02G30G26G17G15G06G28G24G12
 129155598.097 6  24577488.297
 134594759.087 5  25612422.165
 117924933.061 8  22440367.449
 115721622.481 8  22021082.324
 114288227.786 8  21748325.185
 123963289.033 7  23589424.056
 128689951.761 6  24488834.342
 116180620.674 8  22108434.924
 118909033.720 7  22627626.865
 14 10 27  1 35  0.0000000  0  9G02G30G26G17G15G06G28G24G12
 129074111.761 7  24561983.388
 134684222.766 5  25629443.287
 118026953.449 8  22459781.354
 115784514.603 8  22033050.496
 114320415.540 8  21754450.150
 123889358.534 7  23575356.415
 128754252.017 6  24501070.138
 116105977.862 8  22094231.565
 118853219.488 7  22617006.098
 14 10 27  1 35 30.0000000  0  9G02G30G26G17G15G06G28G24G12
 128992539.065 6  24546460.723
 134773814.506 6  25646492.782
 118129229.407 8  22479244.009
 115847784.155 8  22045090.321
 114353108.951 8  21760671.682
 123815626.166 7  23561324.743
 128818503.621 6  24513297.024
 116031504.925 8  22080059.083
 118797589.624 7  22606419.579
 14 10 27  1 36  0.0000000  0  9G02G30G26G17G15G06G28G24G12
 128910883.788 6  24530923.222
 134863535.263 6  25663567.436
 118231759.697 8  22498754.980
 115911430.650 8  22057202.029
 114386308.562 8  21766989.648
 123742096.854 7  23547332.835
 128882708.196 6  24525514.894
 115957206.021 8  22065920.933
 118742145.501 7  22595868.671
 14 10 27  1 36 30.0000000  0  9G02G30G26G17G15G06G28G24G12
 128829149.073 6  24515368.235
 134953385.015 5  25680660.835
 118334541.846 8  22518313.381
 115975452.229 8  22069384.774
 114420012.897 8  21773402.931
 123668774.250 7  23533379.459
 128946866.483 6  24537724.120
 115883083.468 8  22051815.673
 118686887.522 7  22585354.143
 14 10 27  1 37  0.0000000  0  9G02G30G26G17G15G06G28G24G12
 128747338.170 6  24499800.251
 135043363.579 6  25697786.833
 118437573.380 8  22537919.502
 116039847.394 8  22081638.768
 114454221.250 8  21779912.825
 123595662.013 7  23519467.114
 129010978.913 6  24549924.288
 115809139.699 8  22037744.479
 118631815.367 7  22574873.696
 14 10 27  1 37 30.0000000  0  9G02G30G26G17G15G06G28G24G12
 128665458.880 6  24484219.119
 135133475.360 6  25714934.064
 118540856.777 8  22557574.207
 116104619.519 8  22093964.502
 114488937.778 8  21786518.733
 123522768.768 7  23505595.101
 129075051.003 6  24562115.390
 115735382.687 8  22023708.627
 118576934.698 7  22564430.422
 14 10 27  1 38  0.0000000  0  9G02G30G26G17G15G06G28G24G12
 128583494.914 6  24468621.694
 135223701.461 6  25732106.080
 118644370.462 8  22577272.185
 116169747.470 8  22106357.966
 114524142.091 8  21793218.144
 123450079.073 7  23491763.764
 129139064.548 6  24574297.789
 115661795.365 8  22009706.297
 118522226.372 7  22554020.037
 14 10 27  1 38 30.0000000  0  9G02G30G26G17G15G06G28G24G12
 128501455.493 6  24453010.169
 135314047.690 6  25749298.280
 118748117.847 8  22597013.872
 116235235.461 8  22118820.101
 114559838.908 8  21800011.010
 123377602.529 7  23477971.812
 129203026.169 6  24586469.665
 115588386.401 8  21995736.690
 118467696.182 7  22543643.065
 14 10 27  1 39  0.0000000  0  9G02G30G26G17G15G06G28G24G12
 128419349.286 6  24437386.523
 135404519.462 6  25766512.918
 118852102.420 8  22616802.157
 116301087.826 8  22131351.738
 114596033.059 8  21806898.208
 123305348.643 7  23464222.270
 129266941.941 6  24598631.950
 115515164.294 8  21981802.837
 118413351.041 7  22533301.471
 14 10 27  1 39 30.0000000  0  9G02G30G26G17G15G06G28G24G12
 128337183.697 6  24421750.367
 135495121.126 6  25783752.812
 118956325.929 8  22636635.162
 116367307.259 8  22143952.356
 114632727.761 8  21813881.146
 123233325.439 7  23450517.109
 129330817.017 6  24610787.211
 115442135.861 8  21967905.768
 118359195.001 7  22522995.676
 14 10 27  1 40  0.0000000  0  9G02G30G26G17G15G06G28G24G12
 128254956.615 6  24406103.979
 135585846.768 5  25801019.960
 119060780.488 8  22656512.587
 116433886.499 8  22156622.474
 114669916.809 8  21820958.593
 123161531.136 7  23436854.862
 129394646.598 6  24622932.918
 115369297.918 8  21954045.139
 118305222.927 7  22512725.592
 14 10 27  1 40 30.0000000  0  9G02G30G26G17G15G06G28G24G12
 128172668.537 6  24390444.175
 135676694.699 6  25818307.926
 119165461.358 8  22676431.546
 116500821.688 8  22169359.254
 114707596.411 8  21828128.558
 123089967.191 7  23423236.598
 129458428.915 6  24635070.625
 115296651.598 8  21940221.031
 118251433.253 8  22502489.576
 14 10 27  1 41  0.0000000  0  9G02G30G26G17G15G06G28G24G12
 128090322.118 6  24374773.754
 135767663.877 6  25835618.808
 119270365.835 8  22696394.819
 116568110.661 8  22182164.024
 114745765.491 8  21835391.660
 123018636.915 7  23409662.600
 129522164.614 6  24647199.840
 115224198.937 8  21926434.403
 118197825.222 7  22492288.409
 14 10 27  1 41 30.0000000  0  9G02G30G26G17G15G06G28G24G12
 128007917.901 6  24359092.771
 135858751.045 6  25852948.645
 119375488.826 8  22716398.701
 116635748.894 8  22195035.096
 114784419.956 8  21842747.394
 122947541.335 7  23396133.389
 129585851.498 6  24659318.406
 115151939.770 8  21912683.823
 118144396.882 7  22482121.486
 14 10 27  1 42  0.0000000  0  9G02G30G26G17G15G06G28G24G12
 127925453.898 6  24343399.803
 135949951.688 6  25870305.572
 119480822.754 8  22736443.873
 116703729.727 8  22207971.550
 114823553.541 8  21850194.494
 122876679.091 7  23382648.657
 129649485.284 6  24671426.784
 115079871.594 8  21898969.836
 118091142.615 7  22471987.020
 14 10 27  1 42 30.0000000  0  9G02G30G26G17G15G06G28G24G12
 127842941.142 6  24327698.686
 136041273.293 6  25887682.208
 119586373.009 8  22756528.885
 116772059.352 8  22220973.890
 114863173.007 8  21857733.523
 122806061.668 7  23369211.086
 129713074.530 6  24683527.343
 115008005.492 8  21885294.157
 118038071.473 8  22461888.293
 14 10 27  1 43  0.0000000  0  9G02G30G26G17G15G06G28G24G12
 127760385.116 6  24311988.646
 136132718.795 5  25905081.545
 119692139.647 8  22776655.954
 116840738.629 8  22234043.640
 114903279.689 8  21865365.455
 122735695.256 7  23355820.783
 129776622.302 6  24695620.136
 114936345.953 8  21871657.213
 117985185.701 8  22451824.370
 14 10 27  1 43 30.0000000  0  9G02G30G26G17G15G06G28G24G12
 127677781.976 6  24296271.285
 136224281.236 5  25922506.373
 119798113.244 8  22796822.336
 116909758.453 8  22247177.468
 114943865.325 8  21873088.442
 122665576.429 7  23342477.699
 129840122.099 6  24707703.293
 114864888.767 8  21858059.274
 117932478.689 8  22441794.389
 14 10 27  1 44  0.0000000  0  8G02G26G17G15G06G28G24G12
 127595129.813 6  24280542.002
 119904286.225 8  22817025.917
 116979112.302 8  22260375.211
 114984923.607 8  21880901.930
 122595703.961 7  23329181.105
 129903569.995 6  24719779.296
 114793631.468 8  21844499.634
 117879946.067 8  22431797.705
 14 10 27  1 44 30.0000000  0  8G02G26G17G15G06G28G24G12
 127512444.223 6  24264807.915
 120010668.792 8  22837270.162
 117048810.633 8  22273638.300
 115026465.620 8  21888807.009
 122526093.920 7  23315934.624
 129966979.205 6  24731843.410
 114722589.538 8  21830980.757
 117827600.219 8  22421836.624
 14 10 27  1 45  0.0000000  0  8G02G26G17G15G06G28G24G12
 127429716.099 7  24249066.117
 120117246.281 8  22857551.206
 117118839.537 8  22286964.573
 115068478.160 8  21896801.901
 122456737.878 7  23302736.474
 130030337.917 7  24743901.369
 114651753.238 8  21817501.385
 117775429.092 8  22411908.683
 14 10 27  1 45 30.0000000  0  8G02G26G17G15G06G28G24G12
 127346949.045 7  24233314.904
 120224016.630 8  22877869.131
 117189198.358 8  22300353.284
 115110960.270 8  21904886.100
 122387639.864 7  23289588.011
 130093647.590 7  24755949.349
 114581125.665 8  21804061.075
 117723432.766 8  22402014.497
 14 10 27  1 46  0.0000000  0  8G02G26G17G15G06G28G24G12
 127264148.357 7  24217558.948
 120330979.449 7  22898222.431
 117259887.053 8  22313804.678
 115153912.896 8  21913059.319
 122318805.544 7  23276489.270
 130156911.069 7  24767987.837
 114510711.754 8  21790662.200
 117671614.496 8  22392153.775
 14 10 27  1 46 30.0000000  0  8G02G26G17G15G06G28G24G12
 127181322.334 7  24201797.283
 120438137.575 8  22918614.722
 117330909.274 8  22327319.908
 115197339.951 8  21921322.987
 122250243.863 7  23263442.537
 130220134.544 7  24780018.786
 114440519.504 8  21777304.774
 117619979.808 8  22382327.836
 14 10 27  1 47  0.0000000  0  8G02G26G17G15G06G28G24G12
 127098466.406 7  24186030.455
 120545481.009 7  22939041.319
 117402255.676 8  22340896.754
 115241232.308 8  21929675.905
 122181950.909 7  23250446.604
 130283310.793 7  24792040.965
 114370543.285 8  21763988.814
 117568521.038 8  22372535.449
 14 10 27  1 47 30.0000000  0  8G02G26G17G15G06G28G24G12
 127015576.273 7  24170256.882
 120652999.676 8  22959502.112
 117473916.809 8  22354533.088
 115285581.199 8  21938115.329
 122113922.718 7  23237500.606
 130346433.148 7  24804052.528
 114300779.333 8  21750713.256
 117517230.663 8  22362775.065
 14 10 27  1 48  0.0000000  0  8G02G26G17G15G06G28G24G12
 126932663.241 7  24154479.055
 120760699.398 7  22979995.822
 117545899.100 8  22368231.249
 115330393.316 8  21946643.006
 122046171.183 7  23224607.620
 130409510.744 7  24816056.059
 114231237.916 8  21737479.848
 117466117.597 8  22353048.873
 14 10 27  1 48 30.0000000  0  8G02G26G17G15G06G28G24G12
 126849722.906 7  24138694.602
 120868570.032 8  23000522.879
 117618193.195 8  22381987.450
 115375659.756 8  21955256.970
 121978692.193 7  23211768.246
 130472536.349 7  24828048.639
 114161914.410 8  21724287.869
 117415173.485 8  22343354.543
 14 10 27  1 49  0.0000000  0  8G02G26G17G15G06G28G24G12
 126766763.728 7  24122908.583
 120976614.533 7  23021083.468
 117690802.369 8  22395805.206
 115421384.224 8  21963957.682
 121911494.687 7  23198979.606
 130535516.194 6  24840033.113
 114092816.320 8  21711138.844
 117364404.788 8  22333693.277
 14 10 27  1 49 30.0000000  0  8G02G26G17G15G06G28G24G12
 126683780.820 7  24107117.197
 121084822.511 7  23041674.412
 117763716.638 8  22409680.365
 115467557.396 8  21972744.646
 121844574.440 7  23186245.735
 130598443.200 7  24852008.720
 114023939.012 8  21698031.898
 117313803.638 8  22324064.449
 14 10 27  1 50  0.0000000  0  8G02G26G17G15G06G28G24G12
 126600783.790 7  24091323.507
 121193197.865 7  23062297.581
 117836941.246 8  22423614.657
 115514184.141 8  21981617.105
 121777941.354 7  23173566.228
 130661324.425 6  24863976.446
 113955291.341 8  21684968.570
 117263376.693 8  22314468.243
 14 10 27  1 50 30.0000000  0  8G02G26G17G15G06G28G24G12
 126517774.988 7  24075527.757
 121301737.048 7  23082952.253
 117910473.567 8  22437607.428
 115561262.006 8  21990575.382
 121711597.989 7  23160941.602
 130724159.818 6  24875931.649
 113886874.885 8  21671949.455
 117213122.650 8  22304905.641
 14 10 27  1 51  0.0000000  0  8G02G26G17G15G06G28G24G12
 126434758.227 7  24059729.608
 121410438.821 7  23103637.727
 117984312.492 8  22451658.533
 115608790.738 8  21999620.028
 121645549.001 7  23148372.142
 130786951.084 6  24887880.454
 113818693.346 8  21658975.036
 117163043.181 8  22295375.780
 14 10 27  1 51 30.0000000  0  8G02G26G17G15G06G28G24G12
 126351732.965 7  24043932.621
 121519296.524 7  23124352.354
 118058452.141 8  22465766.631
 115656764.654 8  22008749.022
 121579793.824 7  23135859.415
 130849694.781 6  24899820.054
 113750745.387 8  21646044.843
 117113134.336 8  22285877.856
 14 10 27  1 52  0.0000000  0  8G02G26G17G15G06G28G24G12
 126268695.743 7  24028129.546
 121628301.313 7  23145095.154
 118132884.192 8  22479930.764
 115705175.776 8  22017961.298
 121514329.617 7  23123402.534
 130912385.305 6  24911749.075
 113683027.412 8  21633158.777
 117063389.886 8  22276411.892
 14 10 27  1 52 30.0000000  0  8G02G26G17G15G06G28G24G12
 126185658.754 7  24012328.972
 121737459.902 7  23165867.463
 118207615.912 8  22494151.602
 115754031.637 8  22027257.896
 121449169.065 7  23111002.682
 130975032.727 6  24923670.694
 113615551.191 8  21620318.050
 117013819.065 8  22266979.328
 14 10 27  1 53  0.0000000  0  8G02G26G17G15G06G28G24G12
 126102621.244 7  23996526.698
 121846765.739 7  23186668.085
 118282641.561 8  22508428.537
 115803326.546 8  22036638.789
 121384311.645 7  23098660.507
 131037633.495 6  24935584.007
 113548315.252 8  21607523.577
 116964417.787 8  22257578.459
 14 10 27  1 53 30.0000000  0  8G02G26G17G15G06G28G24G12
 126019582.696 7  23980724.783
 121956212.614 7  23207495.082
 118357955.604 8  22522760.423
 115853054.857 8  22046101.596
 121319757.200 7  23086376.300
 131100185.106 6  24947484.935
 113481318.449 8  21594775.057
 116915182.907 8  22248209.313
 14 10 27  1 54  0.0000000  0  8G02G26G17G15G06G28G24G12
 125936550.372 7  23964924.667
 122065802.379 7  23228348.019
 118433560.668 8  22537147.447
 115903219.803 8  22055647.881
 121255513.429 7  23074151.428
 131162692.546 6  24959379.814
 113414568.220 8  21582072.564
 116866118.855 8  22238872.973
 14 10 27  1 54 30.0000000  0  8G02G26G17G15G06G28G24G12
 125853525.050 7  23949124.702
 122175529.891 7  23249229.513
 118509452.206 8  22551589.426
 115953817.051 8  22065276.240
 121191581.297 7  23061984.800
 131225153.809 6  24971267.612
 113348064.711 8  21569417.287
 116817223.222 8  22229568.004
 14 10 27  1 55  0.0000000  0  8G02G26G17G15G06G28G24G12
 125770506.935 7  23933327.937
 122285390.046 7  23270134.662
 118585625.573 8  22566084.410
 116004842.078 8  22074986.265
 121127961.492 7  23049878.350
 131287567.349 6  24983145.072
 113281807.254 8  21556808.964
 116768493.435 8  22220294.618
 14 10 27  1 55 30.0000000  0  8G02G26G17G15G06G28G24G12
 125687501.906 7  23917531.373
 122395382.948 7  23291066.023
 118662081.593 8  22580633.946
 116056295.941 8  22084777.353
 121064660.166 7  23037833.354
 131349935.947 6  24995012.399
 113215801.729 8  21544248.568
 116719932.292 8  22211053.615
 14 10 27  1 56  0.0000000  0  8G02G26G17G15G06G28G24G12
 125604515.947 7  23901739.944
 122505508.782 7  23312022.105
 118738821.032 8  22595236.573
 116108179.487 8  22094650.664
 121001683.448 7  23025848.897
 131412263.360 6  25006873.722
 113150053.259 8  21531736.860
 116671542.176 8  22201845.969
 14 10 27  1 56 30.0000000  0  8G02G26G17G15G06G28G24G12
 125521543.907 7  23885951.846
 122615757.146 7  23333002.760
 118815834.218 8  22609891.952
 116160483.010 8  22104603.362
 120939026.742 8  23013926.345
 131474542.235 6  25018725.819
 113084556.694 8  21519273.326
 116623315.398 8  22192668.805
 14 10 27  1 57  0.0000000  0  8G02G26G17G15G06G28G24G12
 125438587.924 7  23870165.493
 122726124.080 7  23354004.140
 118893117.825 8  22624598.546
 116213203.286 8  22114635.934
 120876692.112 7  23002063.568
 131536772.237 6  25030567.064
 113019313.115 8  21506857.509
 116575251.473 8  22183522.177
 14 10 27  1 57 30.0000000  0  8G02G26G17G15G06G28G24G12
 125355656.458 7  23854384.142
 122836612.861 7  23375029.803
 118970675.410 8  22639357.435
 116266344.524 8  22124748.686
 120814688.706 7  22990264.713
 131598959.815 6  25042401.556
 112954331.125 8  21494492.051
 116527355.790 8  22174408.136
 14 10 27  1 58  0.0000000  0  8G02G26G17G15G06G28G24G12
 125272747.260 7  23838607.255
 122947215.461 7  23396076.029
 119048499.576 8  22654166.260
 116319899.072 8  22134939.413
 120753014.337 7  22978528.761
 131661100.191 6  25054225.802
 112889607.683 8  21482175.736
 116479622.767 8  22165324.609
 14 10 27  1 58 30.0000000  0  8G02G26G17G15G06G28G24G12
 125189866.766 7  23822835.471
 123057932.779 7  23417145.182
 119126592.047 8  22669027.472
 116373868.777 8  22145210.008
 120691675.843 7  22966856.365
 131723197.244 6  25066041.688
 112825148.787 8  21469909.687
 116432055.897 8  22156273.473
 14 10 27  1 59  0.0000000  0  8G02G26G17G15G06G28G24G12
 125107020.469 7  23807070.114
 123168764.536 7  23438235.494
 119204953.251 8  22683938.769
 116428253.970 8  22155559.131
 120630678.794 7  22955248.512
 131785254.251 6  25077851.585
 112760959.430 8  21457695.277
 116384657.831 8  22147253.638
 14 10 27  1 59 30.0000000  0  8G02G26G17G15G06G28G24G12
 125024206.913 7  23791311.411
 123279703.460 7  23459346.552
 119283576.463 8  22698900.219
 116483047.966 8  22165985.755
 120570021.782 7  22943706.377
 131847267.526 6  25089651.973
 112697037.651 8  21445531.009
 116337423.279 8  22138265.028
 14 10 27  2  0  0.0000000  0  8G02G26G17G15G06G28G24G12
 124941423.582 7  23775557.897
 123390741.513 7  23480476.365
 119362453.980 8  22713910.220
 116538243.503 8  22176488.803
 120509702.610 7  22932227.654
 131909231.784 6  25101444.179
 112633380.288 8  21433416.850
 116290347.297 8  22129306.924
 14 10 27  2  0 30.0000000  0  8G02G26G17G15G06G28G24G12
 124858678.752 7  23759812.061
 123501881.497 7  23501626.283
 119441589.534 8  22728969.359
 116593843.841 8  22187069.549
 120449729.900 7  22920815.378
 131971153.337 6  25113225.753
 112569995.370 8  21421355.541
 116243435.800 8  22120379.793
 14 10 27  2  1  0.0000000  0  8G02G26G17G15G06G28G24G12
 124775972.286 7  23744073.816
 123613117.577 7  23522793.130
 119520977.636 8  22744076.472
 116649844.012 8  22197725.434
 120390103.570 7  22909469.121
 132033029.594 6  25125000.437
 112506882.357 8  21409345.717
 116196684.956 8  22111483.517
 14 10 27  2  1 30.0000000  0  8G02G26G17G15G06G28G24G12
 124693313.427 7  23728343.563
 123724453.423 7  23543979.537
 119600622.498 8  22759232.344
 116706248.051 8  22208459.136
 120330833.136 7  22898190.624
 132094867.371 6  25136770.098
 112444049.902 8  21397388.675
 116150100.544 8  22102618.537
 14 10 27  2  2  0.0000000  0  8G02G26G17G15G06G28G24G12
 124610699.790 7  23712623.397
 123835880.976 7  23565183.405
 119680516.960 8  22774435.774
 116763048.374 8  22219268.202
 120271916.380 7  22886979.050
 132156662.448 6  25148528.076
 112381495.269 8  21385485.040
 116103678.274 8  22093784.547
 14 10 27  2  2 30.0000000  0  8G02G26G17G15G06G28G24G12
 124528137.496 7  23696911.901
 123947400.844 7  23586405.460
 119760661.856 8  22789686.811
 116820246.344 8  22230152.489
 120213359.630 7  22875836.122
 132218418.214 6  25160280.705
 112319224.033 8  21373635.495
 116057420.703 8  22084982.098
 14 10 27  2  3  0.0000000  0  8G02G26G17G15G06G28G24G12
 124445626.869 7  23681210.472
 124059007.593 7  23607643.984
 119841052.335 8  22804984.468
 116877837.045 8  22241111.300
 120155163.081 7  22864761.102
 132280132.526 6  25172023.673
 112257236.104 8  21361839.825
 116011324.739 8  22076210.578
 14 10 27  2  3 30.0000000  0  8G02G26G17G15G06G28G24G12
 124363172.662 7  23665520.747
 124170700.340 7  23628897.367
 119921688.326 8  22820329.178
 116935819.952 8  22252145.113
 120097331.786 7  22853755.974
 132341807.873 6  25183761.524
 112195535.503 8  21350098.307
 115965392.642 8  22067470.084
 14 10 27  2  4  0.0000000  0  8G02G26G17G15G06G28G24G12
 124280780.980 7  23649841.806
 124282479.356 7  23650168.600
 120002570.862 8  22835720.492
 116994195.783 8  22263254.213
 120039871.786 7  22842821.741
 132403447.981 6  25195492.917
 112134127.946 8  21338413.024
 115919626.996 8  22058760.737
 14 10 27  2  4 30.0000000  0  8G02G26G17G15G06G28G24G12
 124198455.116 7  23634175.791
 124394342.665 7  23671454.787
 120083698.237 8  22851158.584
 117052962.772 8  22274437.076
 119982786.621 7  22831959.627
 132465053.865 6  25207214.948
 112073016.275 8  21326783.752
 115874027.599 8  22050083.575
 14 10 27  2  5  0.0000000  0  8G02G26G17G15G06G28G24G12
 124116196.762 7  23618522.312
 124506285.953 7  23692758.633
 120165066.683 8  22866641.942
 117112118.385 8  22285693.949
 119926077.867 7  22821168.193
 132526624.723 6  25218929.974
 112012201.094 8  21315210.710
 115828594.414 8  22041438.120
 14 10 27  2  5 30.0000000  0  8G02G26G17G15G06G28G24G12
 124034006.382 7  23602881.776
 124618304.208 7  23714073.794
 120246671.853 8  22882170.832
 117171657.095 8  22297023.546
 119869746.014 7  22810447.845
 132588158.509 6  25230638.431
 111951682.736 8  21303694.764
 115783324.140 8  22032823.450
 14 10 27  2  6  0.0000000  0  8G02G26G17G15G06G28G24G12
 123951887.159 7  23587255.322
 124730395.400 7  23735404.589
 120328512.228 8  22897745.063
 117231577.454 8  22308426.032
 119813794.778 7  22799800.349
 132649656.991 6  25242342.174
 111891464.465 8  21292235.573
 115738217.418 8  22024239.497
 14 10 27  2  6 30.0000000  0  8G02G26G17G15G06G28G24G12
 123869841.407 7  23571642.955
 124842555.887 7  23756747.762
 120410584.476 8  22913362.904
 117291876.042 8  22319900.442
 119758226.113 7  22789226.881
 132711119.503 6  25254038.152
 111831547.713 8  21280833.600
 115693273.090 8  22015687.299
 14 10 27  2  7  0.0000000  0  8G02G26G17G15G06G28G24G12
 123787877.593 7  23556044.959
 124954788.393 7  23778104.822
 120492892.118 8  22929025.376
 117352556.115 8  22331447.635
 119703048.504 7  22778726.157
 132772552.016 6  25265729.747
 111771940.274 8  21269490.564
 115648495.657 8  22007166.360
 14 10 27  2  7 30.0000000  0  8G02G26G17G15G06G28G24G12
 123705991.665 7  23540463.566
 125067083.626 7  23799473.891
 120575426.682 8  22944731.189
 117413608.915 8  22343065.409
 119648258.200 7  22768301.095
 132833948.779 6  25277412.417
 111712638.003 8  21258205.908
 115603879.912 8  21998676.356
 14 10 27  2  8  0.0000000  0  8G02G26G17G15G06G28G24G12
 123624189.111 7  23524895.947
 125179441.372 7  23820854.979
 120658188.083 8  22960479.978
 117475034.136 8  22354754.426
 119593860.577 8  22757949.062
 132895312.505 5  25289088.969
 111653645.890 8  21246979.954
 115559427.415 8  21990217.237
 14 10 27  2  8 30.0000000  0  8G02G26G17G15G06G28G24G12
 123542471.235 7  23509345.235
 125291857.154 7  23842247.756
 120741172.530 8  22976271.486
 117536827.913 8  22366513.352
 119539856.684 8  22747672.356
 132956642.320 6  25300759.993
 111594963.916 8  21235813.464
 115515136.366 8  21981788.741
 14 10 27  2  9  0.0000000  0  8G02G26G17G15G06G28G24G12
 123460840.814 7  23493811.929
 125404328.093 7  23863649.597
 120824377.932 8  22992105.174
 117598988.359 8  22378341.887
 119486249.442 8  22737471.331
 133017938.695 5  25312423.752
 111536595.139 8  21224706.044
 115471006.549 8  21973391.361
 14 10 27  2  9 30.0000000  0  8G02G26G17G15G06G28G24G12
 123379299.469 7  23478295.391
 125516850.570 7  23885061.703
 120907800.964 8  23007980.380
 117661511.499 8  22390239.642
 119433040.494 8  22727345.840
 133079201.009 5  25324081.582
 111478540.550 8  21213658.617
 115427036.097 8  21965024.143
 14 10 27  2 10  0.0000000  0  8G02G26G17G15G06G28G24G12
 123297853.013 7  23462796.308
 125629424.686 7  23906484.444
 120991442.362 8  23023896.606
 117724397.894 8  22402206.509
 119380235.613 8  22717297.474
 133140432.618 5  25335733.213
 111420805.522 8  21202671.955
 115383228.526 8  21956687.632
 14 10 27  2 10 30.0000000  0  8G02G26G17G15G06G28G24G12
 123216497.489 7  23447315.375
 125742040.630 7  23927913.487
 121075292.672 8  23039853.009
 117787637.920 8  22414240.288
 119327830.479 8  22707324.995
 133201627.417 5  25347377.462
 111363385.117 8  21191745.022
 115339576.424 8  21948380.551
 14 10 27  2 11  0.0000000  0  8G02G26G17G15G06G28G24G12
 123135244.751 7  23431853.964
 125854704.803 7  23949353.135
 121159359.112 8  23055850.116
 117851238.320 8  22426343.822
 119275836.972 8  22697431.228
 133262794.463 5  25359017.238
 111306290.837 8  21180880.297
 115296088.109 8  21940105.102
 14 10 27  2 11 30.0000000  0  8G02G26G17G15G06G28G24G12
 123054080.562 7  23416408.646
 125967397.445 7  23970798.391
 121243622.330 8  23071885.178
 117915179.837 8  22438511.462
 119224240.845 8  22687612.047
 133323917.678 6  25370654.307
 111249507.995 8  21170075.024
 115252747.201 8  21931857.959
 14 10 27  2 12  0.0000000  0  8G02G26G17G15G06G28G24G12
 122973021.541 7  23400983.474
 126080129.628 7  23992250.642
 121328093.863 8  23087959.208
 117979473.576 8  22450746.113
 119173058.569 8  22677872.842
 133385011.472 5  25382272.711
 111193053.032 8  21159331.901
 115209567.602 8  21923640.623
 14 10 27  2 12 30.0000000  0  8G02G26G17G15G06G28G24G12
 122892072.821 7  23385579.650
 126192901.030 7  24013710.083
 121412773.843 8  23104072.670
 118044119.466 8  22463048.034
 119122295.299 8  22668212.664
 133446078.431 6  25393896.907
 111136930.398 8  21148652.339
 115166550.543 8  21915455.269
 14 10 27  2 13  0.0000000  0  8G02G26G17G15G06G28G24G12
 122811237.093 7  23370196.823
 126305708.814 7  24035175.501
 121497659.810 8  23120226.519
 118109114.812 8  22475415.673
 119071953.559 8  22658633.068
 133507119.453 5  25405512.031
 111081142.155 8  21138036.327
 115123696.315 8  21907300.114
 14 10 27  2 13 30.0000000  0  8G02G26G17G15G06G28G24G12
 122730510.010 7  23354834.646
 126418542.476 7  24056648.738
 121582742.632 8  23136417.437
 118174449.532 8  22487849.145
 119022028.376 8  22649132.425
 133568126.876 6  25417124.833
 111025682.832 8  21127482.506
 115080996.921 8  21899174.800
 14 10 27  2 14  0.0000000  0  8G02G26G17G15G06G28G24G12
 122649895.809 7  23339494.420
 126531401.015 7  24078124.740
 121668021.100 8  23152645.159
 118240122.522 8  22500345.945
 118972524.017 8  22639711.958
 133629103.538 6  25428725.278
 110970556.636 8  21116992.332
 115038453.319 8  21891079.170
 14 10 27  2 14 30.0000000  0  8G02G26G17G15G06G28G24G12
 122569397.154 7  23324176.254
 126644281.748 7  24099605.204
 121753493.177 8  23168909.613
 118306131.118 8  22512907.089
 118923443.199 8  22630372.506
 133690049.504 5  25440322.293
 110915765.753 8  21106565.768
 114996065.307 8  21883013.050
 14 10 27  2 15  0.0000000  0  8G02G26G17G15G06G28G24G12
 122489016.059 7  23308879.930
 126757181.319 7  24121089.169
 121839156.297 8  23185211.492
 118372472.886 8  22525531.571
 118874787.923 8  22621113.606
 133750965.081 6  25451920.523
 110861311.760 8  21096203.933
 114953833.358 8  21874976.161
 14 10 27  2 15 30.0000000  0  8G02G26G17G15G06G28G24G12
 122408761.989 7  23293608.664
 126870103.234 7  24142578.499
 121925014.193 8  23201549.034
 118439150.887 8  22538220.190
 118826566.885 8  22611938.053
 133811856.822 5  25463502.817
 110807203.009 8  21085906.938
 114911762.716 8  21866970.709
 14 10 27  2 16  0.0000000  0  8G02G26G17G15G06G28G24G12
 122328633.290 7  23278360.695
 126983040.311 7  24164067.981
 122011060.361 8  23217923.279
 118506158.535 8  22550971.014
 118778778.370 8  22602843.150
 133872720.780 6  25475086.239
 110753438.103 8  21075676.004
 114869847.826 8  21858994.245
 14 10 27  2 16 30.0000000  0  8G02G26G17G15G06G28G24G12
 122248633.156 7  23263136.912
 127095990.208 7  24185562.178
 122097292.932 8  23234332.670
 118573493.399 8  22563784.408
 118731425.240 8  22593832.314
 133933557.952 5  25486663.023
 110700019.318 8  21065510.852
 114828089.945 8  21851048.351
 14 10 27  2 17  0.0000000  0  8G02G26G17G15G06G28G24G12
 122168760.351 7  23247936.862
 127208946.570 7  24207056.548
 122183705.916 8  23250777.234
 118641149.218 8  22576658.658
 118684506.364 8  22584904.004
 133994364.942 6  25498232.971
 110646945.076 8  21055411.003
 114786485.229 8  21843131.406
 14 10 27  2 17 30.0000000  0  8G02G26G17G15G06G28G24G12
 122089025.268 7  23232764.278
 127321913.934 7  24228554.004
 122270304.358 8  23267255.881
 118709130.652 8  22589595.275
 118638031.520 8  22576059.735
 134055149.857 6  25509801.795
 110594224.669 8  21045378.533
 114745040.499 8  21835244.495
 14 10 27  2 18  0.0000000  0  8G02G26G17G15G06G28G24G12
 122009423.657 7  23217616.722
 127434882.676 7  24250051.434
 122357079.276 8  23283768.685
 118777427.997 8  22602591.562
 118591996.371 8  22567300.236
 134115906.441 5  25521360.384
 110541853.879 8  21035413.000
 114703747.639 8  21827386.635
 14 10 27  2 18 30.0000000  0  8G02G26G17G15G06G28G24G12
 121929957.659 7  23202494.658
 127547849.132 7  24271548.017
 122444027.491 8  23300314.948
 118846037.598 8  22615647.859
 118546402.320 8  22558623.896
 134176634.163 5  25532917.867
 110489833.736 8  21025513.763
 114662606.597 8  21819557.517
 14 10 27  2 19  0.0000000  0  8G02G26G17G15G06G28G24G12
 121850630.099 7  23187399.354
 127660810.813 7  24293044.683
 122531146.997 8  23316892.774
 118914957.226 7  22628762.309
 118501252.087 8  22550032.030
 134237333.376 6  25544467.292
 110438166.692 8  21015681.828
 114621617.535 8  21811757.938
 14 10 27  2 19 30.0000000  0  8G02G26G17G15G06G28G24G12
 121771443.634 7  23172330.755
 127773764.871 7  24314538.847
 122618435.659 8  23333503.420
 118984184.067 8  22641935.838
 118456548.072 8  22541525.517
 134298005.165 5  25556013.155
 110386854.838 8  21005917.267
 114580779.785 8  21803986.746
 14 10 27  2 20  0.0000000  0  8G02G26G17G15G06G28G24G12
 121692401.051 7  23157289.641
 127886708.901 7  24336030.129
 122705891.476 8  23350145.845
 119053715.930 8  22655167.371
 118412292.907 7  22533103.421
 134358649.882 5  25567553.291
 110335900.887 8  20996221.276
 114540093.437 8  21796244.021
 14 10 27  2 20 30.0000000  0  8G02G26G17G15G06G28G24G12
 121613511.207 7  23142276.912
 127999646.024 7  24357521.132
 122793517.990 7  23366819.720
 119123555.646 8  22668457.641
 118368494.805 8  22524769.040
 134419274.212 6  25579092.131
 110285312.735 8  20986594.768
 114499564.143 8  21788531.724
 14 10 27  2 21  0.0000000  0  8G02G26G17G15G06G28G24G12
 121534773.608 7  23127293.190
 128112569.926 7  24379009.576
 122881309.598 7  23383526.738
 119193697.052 8  22681805.236
 118325152.608 8  22516521.688
 134479874.823 6  25590624.573
 110235088.614 8  20977037.232
 114459187.839 8  21780848.008
 14 10 27  2 21 30.0000000  0  8G02G26G17G15G06G28G24G12
 121456189.364 7  23112340.090
 128225476.793 7  24400496.026
 122969262.740 7  23400263.526
 119264136.070 7  22695209.362
 118282267.397 8  22508360.573
 134540451.194 6  25602151.765
 110185229.793 8  20967549.341
 114418962.510 8  21773193.593
 14 10 27  2 22  0.0000000  0  8G02G26G17G15G06G28G24G12
 121377764.893 7  23097416.530
 128338367.314 7  24421977.252
 123057378.517 7  23417030.960
 119334873.304 8  22708669.997
 118239844.994 8  22500287.938
 134601007.427 6  25613674.062
 110135741.838 8  20958132.183
 114378893.019 8  21765569.123
 14 10 27  2 22 30.0000000  0  8G02G26G17G15G06G28G24G12
 121299499.301 7  23082522.783
 128451235.381 7  24443456.722
 123145651.716 7  23433828.708
 119405903.335 8  22722186.659
 118197884.329 8  22492302.692
 134661540.518 5  25625192.019
 110086623.935 8  20948785.461
 114338974.872 8  21757972.181
 14 10 27  2 23  0.0000000  0  8G02G26G17G15G06G28G24G12
 121221402.595 7  23067661.526
 128564085.456 7  24464931.037
 123234087.134 7  23450657.837
 119477229.782 8  22735759.814
 118156394.697 8  22484407.488
 134722058.128 6  25636711.750
 110037884.795 8  20939510.689
 114299214.317 8  21750405.965
 14 10 27  2 23 30.0000000  0  8G02G26G17G15G06G28G24G12
 121143475.017 7  23052832.391
 128676912.206 7  24486401.848
 123322679.845 7  23467516.488
 119548847.646 7  22749388.262
 118115375.822 8  22476602.047
 134782558.083 6  25648222.667
 109989524.262 8  20930307.880
 114259608.988 8  21742869.100
 14 10 27  2 24  0.0000000  0  8G02G26G17G15G06G28G24G12
 121065716.691 7  23038035.181
 128789710.274 7  24507866.572
 123411424.885 7  23484404.452
 119620751.639 8  22763071.105
 118074827.379 8  22468885.764
 134843038.457 6  25659733.331
 109941541.500 8  20921177.040
 114220156.661 8  21735362.128
 14 10 27  2 24 30.0000000  0  8G02G26G17G15G06G28G24G12
 120988128.283 7  23023271.046
 128902474.986 6  24529325.363
 123500318.096 7  23501320.091
 119692936.613 8  22776807.681
 118034749.484 8  22461259.628
 134903497.777 6  25671237.509
 109893936.861 8  20912118.141
 114180854.406 8  21727883.118
 14 10 27  2 25  0.0000000  0  8G02G26G17G15G06G28G24G12
 120910709.657 7  23008538.096
 129015201.026 6  24550776.643
 123589354.674 7  23518263.323
 119765397.300 7  22790596.106
 117995141.728 8  22453722.007
 134963934.996 6  25682741.600
 109846709.824 8  20903130.832
 114141699.426 8  21720432.383
 14 10 27  2 25 30.0000000  0  8G02G26G17G15G06G28G24G12
 120833465.351 7  22993838.568
 129127887.677 6  24572219.151
 123678534.574 7  23535233.808
 119838132.940 7  22804437.414
 117956008.206 8  22446274.985
 135024350.359 6  25694242.077
 109799864.303 8  20894216.680
 114102693.655 8  21713009.750
 14 10 27  2 26  0.0000000  0  8G02G26G17G15G06G28G24G12
 120756402.524 7  22979174.601
 129240536.231 6  24593655.471
 123767859.465 7  23552231.758
 119911144.672 7  22818331.182
 117917355.082 8  22438920.257
 135084754.791 4  25705745.529
 109753406.669 8  20885376.243
 114063840.177 8  21705616.122
 14 10 27  2 26 30.0000000  0  8G02G26G17G15G06G28G24G12
 120679527.599 7  22964545.942
 129353147.841 6  24615084.461
 123857331.077 7  23569257.440
 119984433.523 8  22832278.148
 117879188.355 8  22431656.891
 135145140.819 6  25717224.758
 109707342.583 8  20876610.663
 114025143.892 8  21698252.282
 14 10 27  2 27  0.0000000  0  8G02G26G17G15G06G28G24G12
 120602839.802 7  22949952.266
 129465716.426 6  24636506.440
 123946943.868 7  23586310.465
 120057993.205 8  22846275.739
 117841506.723 8  22424486.431
 135205511.321 6  25728713.913
 109661670.683 8  20867919.328
 113986600.561 8  21690917.697
 14 10 27  2 27 30.0000000  0  8G02G26G17G15G06G28G24G12
 120526331.161 7  22935393.032
 129578228.551 6  24657917.233
 124036684.577 7  23603386.621
 120131810.261 7  22860322.416
 117804301.434 8  22417406.823
 135265707.261 6  25740199.782
 109616382.791 8  20859301.222
 113948198.670 8  21683610.338
 14 10 27  2 28  0.0000000  0  8G02G26G17G15G06G28G24G12
 120450011.911 7  22920869.973
 129690689.261 6  24679318.070
 124126558.668 7  23620489.607
 120205889.054 7  22874418.859
 117767582.280 8  22410418.960
 135326037.867 6  25751672.773
 109571488.293 8  20850758.143
 113909946.108 8  21676330.745
 14 10 27  2 28 30.0000000  0  9G14G02G26G17G15G06G28G24G12
 136617616.818 5  25997464.480
 120373893.951 7  22906385.712
 129803104.944 6  24700708.801
 124216573.565 7  23637618.658
 120280236.683 7  22888566.551
 117731360.442 8  22403526.224
 135386358.695 5  25763155.252
 109526998.150 8  20842292.114
 113871851.796 8  21669081.735
 14 10 27  2 29  0.0000000  0  9G14G02G26G17G15G06G28G24G12
 136534688.312 6  25981686.124
 120297963.547 7  22891936.446
 129915456.733 6  24722088.090
 124306710.636 7  23654771.499
 120354833.574 7  22902761.989
 117695621.687 8  22396725.350
 135446541.553 5  25774624.489
 109482898.088 9  20833900.266
 113833898.949 8  21661859.726
 14 10 27  2 29 30.0000000  0  9G14G02G26G17G15G06G28G24G12
 136452047.566 6  25965959.310
 120222229.233 7  22877524.916
 130027747.614 6  24743456.598
 124396973.092 7  23671948.103
 120429682.350 7  22917005.491
 117660373.631 8  22390017.996
 135506825.569 4  25786101.371
 109439196.133 8  20825583.921
 113796093.352 8  21654665.349
 14 10 27  2 30  0.0000000  0  9G14G02G26G17G15G06G28G24G12
 136369697.494 6  25950289.193
 120146694.063 7  22863150.982
 130139975.393 6  24764813.233
 124487359.470 7  23689147.871
 120504781.150 7  22931296.595
 117625618.708 8  22383404.465
 135567093.728 4  25797565.110
 109395894.588 8  20817343.908
 113758434.664 8  21647499.239
 14 10 27  2 30 30.0000000  0  9G14G02G26G17G15G06G28G24G12
 136287642.124 5  25934675.798
 120071362.903 7  22848815.473
 130252139.837 6  24786156.986
 124577870.225 7  23706371.571
 120580129.040 7  22945634.351
 117591361.239 8  22376885.320
 135627348.974 5  25809032.879
 109352997.987 8  20809180.744
 113720925.521 8  21640361.299
 14 10 27  2 31  0.0000000  0  9G14G02G26G17G15G06G28G24G12
 136205885.950 5  25919117.328
 119996240.846 7  22834521.125
 130364240.437 6  24807490.223
 124668505.132 7  23723618.837
 120655725.479 7  22960020.173
 117557605.383 7  22370462.083
 135687594.417 5  25820497.938
 109310510.740 9  20801095.859
 113683568.076 8  21633252.497
 14 10 27  2 31 30.0000000  0  9G14G02G26G17G15G06G28G24G12
 136124420.033 5  25903616.736
 119921318.915 7  22820263.359
 130476263.170 6  24828806.692
 124759250.488 7  23740887.648
 120731555.934 7  22974450.203
 117524341.608 8  22364131.877
 135747819.076 5  25831957.924
 109268422.744 9  20793086.782
 113646350.848 8  21626170.109
 14 10 27  2 32  0.0000000  0  9G14G02G26G17G15G06G28G24G12
 136043252.205 6  25888167.028
 119846605.216 7  22806045.825
 130588210.739 6  24850110.592
 124850109.704 7  23758177.152
 120807623.184 7  22988925.486
 117491577.137 8  22357896.951
 135808028.821 5  25843416.443
 109226741.340 8  20785154.951
 113609277.986 8  21619115.261
 14 10 27  2 32 30.0000000  0  9G14G02G26G17G15G06G28G24G12
 135962378.092 6  25872780.435
 119772096.535 8  22791867.582
 130700074.491 6  24871396.518
 124941074.342 7  23775486.948
 120883918.220 7  23003443.965
 117459307.777 8  22351756.005
 135868218.141 5  25854871.449
 109185463.042 9  20777300.119
 113572343.822 8  21612086.695
 14 10 27  2 33  0.0000000  0  9G14G02G26G17G15G06G28G24G12
 135881810.323 5  25857448.409
 119697805.463 8  22777730.118
 130811861.953 6  24892669.536
 125032152.485 7  23792818.217
 120960448.261 7  23018006.972
 117427545.511 8  22345711.989
 135928397.575 5  25866322.222
 109144599.485 8  20769524.001
 113535558.412 8  21605086.777
 14 10 27  2 33 30.0000000  0  9G14G02G26G17G15G06G28G24G12
 135801548.229 5  25842173.184
 119623732.069 8  22763634.406
 130923567.818 6  24913926.415
 125123339.477 7  23810170.953
 121037207.414 7  23032613.529
 117396289.468 8  22339764.311
 135988565.280 5  25877772.396
 109104150.100 8  20761826.829
 113498918.470 8  21598114.644
 14 10 27  2 34  0.0000000  0  9G14G02G26G17G15G06G28G24G12
 135721597.486 6  25826960.709
 119549881.799 8  22749581.112
 131035192.475 6  24935167.488
 125214635.972 7  23827544.339
 121114196.103 7  23047263.748
 117365544.494 8  22333913.827
 136048725.171 5  25889219.878
 109064119.994 9  20754209.051
 113462426.855 8  21591170.643
 14 10 27  2 34 30.0000000  0  9G14G02G26G17G15G06G28G24G12
 135641956.294 5  25811802.367
 119476253.282 8  22735570.077
 131146729.476 6  24956393.102
 125306036.208 7  23844936.928
 121191407.561 7  23061956.276
 117335308.445 8  22328159.977
 136108873.352 5  25900669.863
 109024506.821 9  20746671.156
 113426080.413 8  21584254.123
 14 10 27  2 35  0.0000000  0  8G14G02G26G17G15G06G24G12
 135562625.462 6  25796709.699
 119402847.622 8  22721601.686
 131258174.601 6  24977599.899
 125397536.441 7  23862348.719
 121268837.226 7  23076691.090
 117305581.503 8  22322503.603
 108985311.313 8  20739212.537
 113389876.527 8  21577364.863
 14 10 27  2 35 30.0000000  0  8G14G02G26G17G15G06G24G12
 135483612.042 6  25781673.673
 119329672.767 8  22707676.703
 131369530.609 6  24998790.944
 125489139.914 7  23879780.247
 121346487.495 7  23091467.682
 117276370.685 8  22316944.374
 108946540.782 8  20731834.412
 113353820.396 8  21570503.212
 14 10 27  2 36  0.0000000  0  8G14G02G26G17G15G06G24G12
 135404916.740 6  25766698.106
 119256729.547 8  22693795.549
 131480792.925 6  25019961.938
 125580842.533 7  23897231.194
 121424353.626 7  23106285.096
 117247675.870 8  22311484.027
 108908194.974 9  20724537.807
 113317909.682 8  21563669.672
 14 10 27  2 36 30.0000000  0  8G14G02G26G17G15G06G24G12
 135326539.167 6  25751783.423
 119184018.372 8  22679959.856
 131591956.918 6  25041117.588
 125672639.964 7  23914699.196
 121502430.356 8  23121142.822
 117219496.505 8  22306122.205
 108870273.397 9  20717321.457
 113282141.758 8  21556863.112
 14 10 27  2 37  0.0000000  0  8G14G02G26G17G15G06G24G12
 135248479.327 6  25736928.362
 119111539.107 8  22666167.129
 131703017.414 6  25062251.054
 125764527.432 7  23932185.288
 121580712.159 7  23136039.079
 117191831.647 8  22300857.331
 108832775.649 9  20710185.899
 113246514.989 8  21550083.340
 14 10 27  2 37 30.0000000  0  9G14G02G26G17G15G06G25G24G12
 135170741.503 6  25722136.654
 119039296.725 8  22652420.687
 131813973.984 6  25083365.508
 125856505.146 7  23949687.933
 121659198.274 7  23150974.337
 117164685.236 8  22295691.448
 127969251.572 5  24351739.895
 108795705.536 9  20703131.841
 113211030.860 8  21543331.276
 14 10 27  2 38  0.0000000  0  9G14G02G26G17G15G06G25G24G12
 135093332.078 6  25707405.270
 118967298.213 8  22638719.178
 131924828.746 6  25104459.358
 125948575.577 7  23967208.228
 121737890.840 7  23165948.825
 117138063.360 8  22290625.513
 127898928.068 5  24338358.382
 108759069.686 8  20696160.531
 113175693.642 8  21536606.949
 14 10 27  2 38 30.0000000  0  9G14G02G26G17G15G06G25G24G12
 135016252.422 5  25692737.251
 118895544.972 8  22625064.856
 132035577.751 6  25125535.175
 126040735.581 7  23984746.047
 121816785.220 7  23180962.494
 117111966.316 8  22285659.180
 127828642.083 6  24324982.947
 108722868.873 8  20689271.300
 113140501.413 7  21529909.790
 14 10 27  2 39  0.0000000  0  9G14G02G26G17G15G06G25G24G12
 134939513.365 6  25678136.539
 118824048.918 8  22611459.935
 132146227.706 6  25146589.935
 126132992.088 7  24002301.991
 121895887.694 7  23196015.059
 117086404.924 8  22280795.216
 127758402.574 5  24311617.112
 108687113.552 8  20682467.356
 113105464.338 7  21523242.623
 14 10 27  2 39 30.0000000  0  9G14G02G26G17G15G06G25G24G12
 134863108.622 6  25663593.631
 118752803.287 8  22597902.352
 132256766.982 6  25167626.246
 126225333.903 7  24019873.808
 121975186.144 7  23211104.675
 117061371.634 8  22276031.687
 127688200.408 5  24298256.699
 108651796.863 8  20675746.693
 113070572.223 7  21516603.480
 14 10 27  2 40  0.0000000  0  9G14G02G26G17G15G06G25G24G12
 134787047.503 6  25649122.031
 118681818.212 8  22584393.504
 132367200.734 6  25188639.576
 126317766.681 7  24037462.945
 122054685.291 7  23226233.050
 117036875.590 8  22271370.358
 127618042.940 5  24284904.546
 108616927.973 8  20669111.183
 113035832.599 8  21509992.108
 14 10 27  2 40 30.0000000  0  9G14G02G26G17G15G06G25G24G12
 134711326.797 6  25634711.731
 118611090.852 8  22570935.288
 132477520.890 6  25209636.564
 126410282.972 7  24055068.327
 122134376.635 7  23241397.718
 117012912.731 8  22266809.777
 127547924.401 6  24271564.881
 108582503.450 8  20662560.810
 113001240.478 7  21503409.903
 14 10 27  2 41  0.0000000  0  9G14G02G26G17G15G06G25G24G12
 134635956.068 6  25620367.402
 118540630.997 8  22557527.343
 132587732.148 6  25230603.394
 126502887.827 7  24072691.176
 122214264.800 7  23256600.470
 116989491.918 8  22262352.749
 127477851.985 6  24258228.854
 108548532.302 8  20656096.173
 112966802.278 7  21496856.334
 14 10 27  2 41 30.0000000  0  9G14G02G26G17G15G06G25G24G12
 134560920.282 6  25606089.881
 118470424.174 8  22544167.548
 132697815.228 6  25251557.729
 126595562.375 7  24090325.769
 122294329.631 7  23271836.282
 116966597.564 8  22257996.451
 127407808.569 6  24244900.916
 108514999.394 8  20649714.947
 112932500.955 7  21490328.876
 14 10 27  2 42  0.0000000  0  9G14G02G26G17G15G06G25G24G12
 134486233.690 6  25591878.779
 118400485.248 8  22530858.000
 132807779.679 5  25272477.454
 126688316.686 7  24107977.248
 122374580.061 7  23287106.516
 116944243.279 8  22253742.497
 127337806.084 6  24231579.134
 108481918.480 8  20643420.266
 112898349.009 7  21483829.792
 14 10 27  2 42 30.0000000  0  9G14G02G26G17G15G06G25G24G12
 134411894.442 6  25577732.614
 118330812.965 8  22517599.637
 132917619.261 6  25293384.173
 126781144.970 7  24125640.819
 122455009.955 7  23302411.617
 116922426.677 8  22249590.965
 127267840.599 6  24218265.928
 108449287.108 9  20637210.396
 112864342.570 8  21477358.371
 14 10 27  2 43  0.0000000  0  9G14G02G26G17G15G06G25G24G12
 134337905.741 5  25563651.487
 118261410.602 8  22504392.734
 133027332.286 6  25314257.676
 126874046.161 7  24143320.200
 122535617.153 7  23317751.415
 116901150.078 8  22245542.180
 127197912.830 6  24204959.280
 108417108.831 9  20631087.001
 112830481.677 8  21470915.103
 14 10 27  2 43 30.0000000  0  9G14G02G26G17G15G06G25G24G12
 134264269.288 6  25549641.610
 118192280.515 8  22491238.098
 133136915.984 6  25335114.456
 126967017.820 7  24161011.305
 122616398.099 7  23333124.006
 116880414.447 8  22241596.043
 127128022.333 6  24191658.612
 108385384.986 9  20625050.189
 112796766.066 8  21464499.555
 14 10 27  2 44  0.0000000  0  9G14G02G26G17G15G06G25G24G12
 134190991.564 6  25535694.338
 118123429.285 8  22478136.298
 133246372.274 6  25355939.871
 127060062.357 7  24178717.434
 122697354.284 7  23348529.065
 116860225.439 8  22237754.447
 127058173.179 6  24178366.686
 108354120.668 9  20619100.844
 112763200.551 8  21458112.115
 14 10 27  2 44 30.0000000  0  9G14G02G26G17G15G06G25G24G12
 134118072.684 6  25521820.032
 118054857.756 8  22465087.726
 133355696.890 6  25376745.640
 127153175.940 7  24196435.938
 122778481.132 7  23363966.964
 116840582.693 8  22234016.103
 126988363.569 7  24165082.656
 108323316.711 8  20613239.030
 112729782.897 8  21451753.070
 14 10 27  2 45  0.0000000  0  9G14G02G26G17G15G06G25G24G12
 134045508.451 6  25508011.544
 117986561.844 8  22452091.098
 133464881.001 6  25397521.328
 127246350.308 7  24214166.809
 122859769.172 7  23379435.363
 116821481.060 8  22230381.517
 126918586.921 7  24151803.815
 108292968.205 8  20607464.223
 112696505.691 8  21445420.698
 14 10 27  2 45 30.0000000  0  9G14G02G26G17G15G06G25G24G12
 133973304.764 6  25494273.228
 117918548.205 8  22439148.520
 133573926.022 6  25418274.960
 127339587.292 7  24231909.275
 122941219.322 7  23394935.034
 116802925.684 8  22226850.578
 126848846.923 6  24138532.622
 108263080.512 9  20601776.581
 112663374.085 8  21439115.800
 14 10 27  2 46  0.0000000  0  9G14G02G26G17G15G06G25G24G12
 133901462.528 6  25480601.430
 117850818.543 8  22426259.938
 133682828.709 6  25438995.106
 127432884.049 7  24249663.202
 123022827.756 7  23410464.395
 116784916.922 8  22223424.013
 126779142.581 6  24125268.790
 108233654.713 9  20596177.065
 112630386.860 8  21432838.489
 14 10 27  2 46 30.0000000  0  9G14G02G26G17G15G06G25G24G12
 133829984.947 6  25466998.600
 117783375.971 8  22413426.090
 133791587.413 6  25459693.254
 127526239.492 7  24267428.072
 123104592.378 7  23426023.858
 116767456.885 8  22220101.144
 126709474.657 7  24112011.333
 108204693.234 9  20590665.685
 112597544.361 8  21426588.862
 14 10 27  2 47  0.0000000  0  9G14G02G26G17G15G06G25G24G12
 132183451.876 6  25153674.042
 116140800.822 8  22100854.362
 132324783.743 6  25180570.468
 126044235.045 7  23985411.974
 121611093.229 7  23141820.121
 115175126.323 8  21917090.881
 125064420.744 7  23798968.732
 106600777.032 9  20285450.682
 110989425.356 8  21120574.023
 14 10 27  2 47 30.0000000  0  9G14G02G26G17G15G06G25G24G12
 132112706.663 5  25140211.151
 116073936.693 8  22088130.685
 132433244.333 6  25201209.102
 126137699.021 6  24003196.974
 121693158.349 7  23157436.856
 115158764.188 8  21913977.540
 124994822.024 7  23785724.880
 106572745.805 9  20280116.767
 110956869.259 8  21114378.594
 14 10 27  2 48  0.0000000  0  9G14G02G26G17G15G06G25G24G12
 132042334.754 5  25126819.807
 116007369.654 8  22075463.086
 132541556.476 6  25221822.178
 126231218.365 6  24020993.806
 121775373.184 7  23173081.983
 115142956.798 8  21910968.960
 124925261.802 7  23772487.406
 106545186.216 9  20274871.837
 110924460.407 8  21108211.249
 14 10 27  2 48 30.0000000  0  9G14G02G26G17G15G06G25G24G12
 131972325.093 5  25113497.102
 115941089.484 8  22062851.275
 132649704.889 5  25242399.189
 126324778.937 6  24038797.404
 121857722.219 7  23188752.533
 115127692.780 8  21908064.088
 124855727.463 6  23759254.775
 106518087.508 9  20269715.351
 110892186.337 8  21102069.641
 14 10 27  2 49  0.0000000  0  9G14G02G26G17G15G06G25G24G12
 131902687.865 5  25100247.358
 115875106.793 8  22050294.879
 132757695.534 6  25262953.352
 126418386.293 6  24056609.773
 121940210.981 7  23204449.842
 115112981.170 8  21905265.167
 124786226.816 6  23746029.059
 106491459.259 9  20264648.483
 110860054.564 8  21095955.282
 14 10 27  2 49 30.0000000  0  9G14G02G26G17G15G06G25G24G12
 131833428.878 5  25087064.972
 115809427.924 8  22037796.268
 132865529.268 5  25283467.682
 126512042.593 6  24074433.193
 122022839.949 7  23220173.416
 115098826.602 8  21902571.595
 124716763.317 6  23732810.986
 106465306.424 9  20259671.482
 110828068.788 8  21089868.607
 14 10 27  2 50  0.0000000  0  9G14G02G26G17G15G06G25G24G12
 131764549.542 6  25073959.732
 115744054.412 8  22025355.843
 132973203.782 6  25303961.218
 126605745.372 6  24092264.573
 122105605.823 7  23235923.182
 115085229.915 8  21899983.762
 124647336.615 6  23719599.871
 106439630.440 9  20254785.401
 110796228.473 8  21083809.435
 14 10 27  2 50 30.0000000  0  9G14G02G26G17G15G06G25G24G12
 131696041.184 6  25060921.212
 115678977.920 8  22012972.177
 133080705.660 5  25324414.997
 126699482.085 6  24110101.802
 122188494.782 7  23251696.194
 115072181.244 8  21897500.902
 124577935.692 6  23706392.642
 106414421.623 9  20249988.433
 110764523.309 8  21077776.177
 14 10 27  2 51  0.0000000  0  9G14G02G26G17G15G06G25G24G12
 131627916.559 6  25047959.658
 115614211.959 8  22000648.143
 133188043.744 5  25344843.174
 126793261.465 6  24127947.091
 122271514.846 7  23267494.516
 115059692.670 8  21895124.723
 124508571.527 6  23693193.969
 106389692.886 9  20245282.622
 110732963.901 8  21071770.736
 14 10 27  2 51 30.0000000  0  9G14G02G26G17G15G06G25G24G12
 131560178.066 6  25035068.488
 115549759.650 8  21988382.779
 133295216.227 4  25365238.053
 126887082.256 6  24145801.326
 122354663.699 7  23283317.455
 115047765.620 8  21892854.798
 124439244.526 6  23680001.112
 106365446.654 9  20240668.846
 110701550.410 8  21065792.822
 14 10 27  2 52  0.0000000  0  8G14G02G17G15G06G25G24G12
 131492822.685 6  25022251.256
 115485617.913 8  21976177.328
 126980937.881 6  24163661.497
 122437933.062 7  23299162.240
 115036395.944 8  21890690.943
 124369949.439 6  23666814.273
 106341679.002 9  20236146.053
 110670277.687 8  21059842.105
 14 10 27  2 52 30.0000000  0  8G14G02G17G15G06G25G24G12
 131425852.573 6  25009507.358
 115421789.863 8  21964030.800
 127074826.759 7  24181527.878
 122521320.924 7  23315031.494
 115025585.093 8  21888633.871
 124300686.736 6  23653634.051
 106318391.509 9  20231714.529
 110639146.691 8  21053917.814
 14 10 27  2 53  0.0000000  0  8G14G02G17G15G06G25G24G12
 131359269.995 5  24996833.175
 115358278.019 8  21951945.362
 127168747.622 7  24199400.099
 122604824.302 7  23330921.891
 115015334.156 8  21886683.007
 124231456.490 6  23640459.691
 106295586.156 9  20227374.880
 110608158.105 8  21048020.761
 14 10 27  2 53 30.0000000  0  8G14G02G17G15G06G25G24G12
 131293070.795 6  24984241.273
 115295078.628 8  21939918.460
 127262692.018 7  24217276.653
 122688434.005 7  23346831.657
 115005637.784 8  21884838.196
 124162252.357 7  23627291.215
 106273258.305 9  20223126.132
 110577304.978 8  21042149.683
 14 10 27  2 54  0.0000000  0  8G14G02G17G15G06G25G24G12
 131227257.471 5  24971716.216
 115232194.840 8  21927952.968
 127356659.071 7  24235158.335
 122772148.287 7  23362762.241
 114996497.885 8  21883099.120
 124093075.343 7  23614127.379
 106251410.473 9  20218968.496
 110546588.439 8  21036304.413
 14 10 27  2 54 30.0000000  0  8G14G02G17G15G06G25G24G12
 131161839.670 6  24959269.123
 115169636.994 8  21916048.016
 127450654.680 7  24253044.942
 122855971.706 7  23378713.323
 114987922.873 8  21881466.750
 124023933.033 7  23600969.710
 106230051.650 9  20214904.125
 110516015.467 8  21030486.880
 14 10 27  2 55  0.0000000  0  8G14G02G17G15G06G25G24G12
 131096815.319 6  24946892.833
 115107403.554 8  21904205.448
 127544673.348 7  24270936.562
 122939897.349 7  23394683.239
 114979909.905 8  21879942.328
 123954821.607 7  23587818.707
 106209179.332 9  20210932.152
 110485583.228 8  21024695.986
 14 10 27  2 55 30.0000000  0  8G14G02G17G15G06G25G24G12
 131032187.844 5  24934595.658
 115045497.948 8  21892425.137
 127638714.405 7  24288831.926
 123023924.257 7  23410673.246
 114972460.968 8  21878524.344
 123885742.237 6  23574672.418
 106188796.495 9  20207053.523
 110455293.234 8  21018931.799
 14 10 27  2 56  0.0000000  0  8G14G02G17G15G06G25G24G12
 130967962.414 6  24922373.333
 114983926.442 8  21880708.211
 127732779.995 7  24306731.953
 123108052.790 7  23426682.015
 114965580.415 8  21877215.446
 123816698.452 6  23561534.537
 106168908.018 9  20203268.878
 110425148.836 8  21013195.636
 14 10 27  2 56 30.0000000  0  8G14G02G17G15G06G25G24G12
 130904140.739 5  24910227.265
 114922690.893 8  21869055.802
 127826868.024 7  24324636.257
 123192279.806 7  23442709.615
 114959268.920 8  21876014.450
 123747690.128 6  23548402.648
 106149515.000 9  20199578.520
 110395149.314 8  21007486.701
 14 10 27  2 57  0.0000000  0  8G14G02G17G15G06G25G24G12
 130840722.373 5  24898160.935
 114861791.196 8  21857466.934
 127920974.460 7  24342545.258
 123276600.007 7  23458755.617
 114953524.669 8  21874921.085
 123678714.717 6  23535275.589
 106130616.702 9  20195982.245
 110365292.910 8  21001805.123
 14 10 27  2 57 30.0000000  0  8G14G02G17G15G06G25G24G12
 130777713.621 5  24886169.288
 114801234.737 8  21845943.257
 128015102.661 7  24360456.828
 123361015.414 7  23474819.846
 114948353.355 8  21873936.955
 123609777.215 7  23522158.006
 106112219.198 9  20192481.354
 110335584.553 8  20996152.173
 14 10 27  2 58  0.0000000  0  8G14G02G17G15G06G25G24G12
 130715101.229 6  24874257.141
 114741008.548 8  21834482.692
 128109235.069 7  24378369.043
 123445508.199 7  23490897.835
 114943740.387 8  21873059.616
 123540862.352 7  23509044.380
 106094308.501 9  20189073.251
 110306008.340 8  20990523.638
 14 10 27  2 58 30.0000000  0  8G14G02G17G15G06G25G24G12
 130652906.287 6  24862420.748
 114681133.727 8  21823089.216
 128203388.886 7  24396286.426
 123530093.959 7  23506994.972
 114939705.314 8  21872291.588
 123471988.972 7  23495937.328
 106076905.558 9  20185761.043
 110276583.933 8  20984924.603
 14 10 27  2 59  0.0000000  0  8G14G02G17G15G06G25G24G12
 130591120.978 6  24850664.691
 114621603.581 8  21811760.867
 128297553.455 7  24414204.496
 123614760.846 7  23523106.224
 114936239.539 8  21871631.889
 123403147.840 7  23482837.491
 106060001.826 9  20182544.526
 110247302.015 8  20979351.796
 14 10 27  2 59 30.0000000  0  8G14G02G17G15G06G25G24G12
 130529744.177 6  24838984.246
 114562417.353 8  21800497.732
 128391724.408 7  24432125.646
 123699503.087 7  23539231.879
 114933340.845 8  21871079.951
 123334336.144 7  23469742.679
 106043595.805 9  20179422.689
 110218160.613 8  20973807.003
 14 10 27  3  0  0.0000000  0  8G14G02G17G15G06G25G24G12
 130468776.713 5  24827381.636
 114503576.485 8  21789301.270
 128485898.986 7  24450046.108
 123784317.013 7  23555371.623
 114931008.981 8  21870636.508
 123265553.080 7  23456655.156
 106027687.795 9  20176395.597
 110189158.221 8  20968288.079
 14 10 27  3  0 30.0000000  0  8G14G02G17G15G06G25G24G12
 130408225.615 5  24815861.144
 114445088.521 8  21778171.007
 128580080.828 7  24467969.600
 123869204.908 7  23571525.844
 114929249.708 7  21870301.796
 123196803.859 7  23443571.583
 106012284.734 9  20173464.601
 110160300.584 8  20962796.637
 14 10 27  3  1  0.0000000  0  8G14G02G17G15G06G25G24G12
 130348099.979 5  24804417.416
 114386963.043 8  21767109.902
 128674275.356 6  24485892.863
 123954171.103 7  23587693.516
 114928070.752 8  21870077.281
 123128095.715 7  23430496.980
 105997394.975 9  20170631.440
 110131594.228 8  20957334.074
 14 10 27  3  1 30.0000000  0  8G14G02G17G15G06G25G24G12
 130288396.024 5  24793055.633
 114329196.880 8  21756117.606
 128768475.808 6  24503819.812
 124039207.651 7  23603875.242
 114927467.242 7  21869962.553
 123059423.289 7  23417428.502
 105983014.502 9  20167894.526
 110103034.480 8  20951899.300
 14 10 27  3  2  0.0000000  0  8G14G02G17G15G06G25G24G12
 130229105.024 5  24781773.216
 114271781.783 8  21745191.813
 128862670.094 6  24521743.746
 124124301.348 7  23620068.177
 114927429.504 7  21869955.207
 122990776.470 7  23404365.860
 105969134.247 9  20165253.135
 110074611.285 8  20946490.472
 14 10 27  3  2 30.0000000  0  8G14G02G17G15G06G25G24G12
 130170234.126 5  24770570.354
 114214725.891 8  21734334.473
 128956862.128 6  24539668.669
 124209454.512 7  23636272.523
 114927963.463 8  21870057.167
 122922160.728 7  23391309.064
 105955760.776 9  20162708.108
 110046330.379 8  20941108.646
 14 10 27  3  3  0.0000000  0  8G14G02G17G15G06G25G24G12
 130111783.739 5  24759448.319
 114158029.671 8  21723545.043
 129051048.854 6  24557591.569
 124294663.312 7  23652486.635
 114929068.086 7  21870267.545
 122853574.692 7  23378257.920
 105942893.771 9  20160259.534
 110018190.561 8  20935754.164
 14 10 27  3  3 30.0000000  0  8G14G02G17G15G06G25G24G12
 130053759.067 5  24748407.531
 114101698.866 8  21712826.102
 129145232.267 6  24575513.691
 124379928.649 7  23668712.911
 114930747.385 8  21870586.857
 122785021.978 7  23365211.727
 105930537.748 9  20157908.506
 109990195.026 8  20930426.365
 14 10 27  3  4  0.0000000  0  8G14G02G17G15G06G25G24G12
 129996162.552 5  24737446.572
 114045736.850 8  21702176.553
 129239411.615 6  24593435.598
 124465248.161 7  23684949.002
 114933002.719 7  21871015.926
 122716503.664 7  23352173.696
 105918695.555 9  20155654.880
 109962345.024 8  20925126.592
 14 10 27  3  4 30.0000000  0  8G14G02G17G15G06G25G24G12
 129938996.490 5  24726569.188
 113990146.074 8  21691598.368
 129333585.637 6  24611356.418
 124550619.702 7  23701194.555
 114935834.909 7  21871554.822
 122648020.203 7  23339141.743
 105907368.531 9  20153499.496
 109934641.818 8  20919855.157
 14 10 27  3  5  0.0000000  0  8G14G02G17G15G06G25G24G12
 129882259.215 5  24715771.950
 113934925.769 8  21681090.234
 129427750.115 6  24629274.431
 124636037.328 7  23717448.529
 114939241.148 7  21872203.434
 122579568.597 6  23326115.466
 105896554.553 9  20151441.614
 109907082.027 8  20914610.791
 14 10 27  3  5 30.0000000  0  8G14G02G17G15G06G25G24G12
 129825952.583 5  24705056.291
 113880078.254 8  21670653.351
 129521903.004 6  24647192.387
 124721498.269 7  23733711.909
 114943221.757 8  21872960.680
 122511148.931 7  23313095.824
 105886254.938 9  20149481.743
 109879664.839 8  20909393.185
 14 10 27  3  6  0.0000000  0  8G14G02G17G15G06G25G24G12
 129770089.466 5  24694425.564
 113825616.810 8  21660289.781
 129616054.680 6  24665108.921
 124807011.352 7  23749984.120
 114947788.753 7  21873829.770
 122442773.016 7  23300084.598
 105876482.177 9  20147622.081
 109852403.682 8  20904205.524
 14 10 27  3  6 30.0000000  0  8G14G02G17G15G06G25G24G12
 129714661.041 5  24683878.326
 113771533.531 8  21649997.575
 129710193.355 6  24683023.441
 124892563.590 7  23766263.814
 114952931.957 8  21874808.386
 122374430.500 6  23287079.382
 105867227.355 9  20145860.864
 109825288.212 8  20899045.566
 14 10 27  3  7  0.0000000  0  8G14G02G17G15G06G25G24G12
 129659670.707 6  24673414.673
 113717832.858 8  21639778.694
 129804318.954 6  24700934.813
 124978153.488 7  23782550.397
 114958653.384 8  21875896.975
 122306123.271 7  23274081.572
 105858493.160 9  20144198.917
 109798320.230 8  20893913.725
 14 10 27  3  7 30.0000000  0  9G14G02G17G15G06G29G25G24G12
 129605119.081 5  24663033.463
 113664515.156 8  21629632.712
 129898429.018 6  24718842.889
 125063777.898 7  23798843.935
 114964952.231 8  21877095.961
 128228641.878 5  24401097.083
 122237850.425 6  23261088.585
 105850279.283 9  20142635.884
 109771498.482 8  20888810.068
 14 10 27  3  8  0.0000000  0  9G14G02G17G15G06G29G25G24G12
 129551008.571 6  24652736.305
 113611583.224 8  21619559.822
 129992522.853 6  24736748.641
 125149434.449 7  23815143.921
 114971829.468 8  21878404.461
 128131670.532 5  24382644.282
 122169612.860 6  23248103.433
 105842588.025 9  20141172.254
 109744824.284 8  20883733.676
 14 10 27  3  8 30.0000000  0  9G14G02G17G15G06G29G25G24G12
 129497337.000 6  24642521.410
 113559035.972 8  21609560.887
 130086595.657 6  24754650.689
 125235117.002 7  23831449.225
 114979281.745 8  21879822.502
 128034861.015 6  24364222.576
 122101407.227 7  23235124.702
 105835416.524 9  20139807.926
 109718294.516 8  20878685.444
 14 10 27  3  9  0.0000000  0  9G14G02G17G15G06G29G25G24G12
 129444111.556 5  24632393.656
 113506881.302 8  21599636.296
 130180651.308 6  24772549.123
 125320828.429 6  23847759.349
 114987314.976 8  21881350.981
 127938220.223 6  24345831.331
 122033239.331 6  23222152.309
 105828771.959 9  20138543.193
 109691914.808 8  20873665.379
 14 10 27  3  9 30.0000000  0  9G14G02G17G15G06G29G25G24G12
 129391326.306 6  24622350.357
 113455113.499 8  21589784.755
 130274680.958 6  24790441.599
 125406558.321 7  23864073.746
 114995921.616 8  21882989.275
 127841741.983 6  24327473.228
 121965101.700 7  23209187.358
 105822647.534 9  20137377.684
 109665677.656 8  20868672.782
 14 10 27  3 10  0.0000000  0  9G14G02G17G15G06G29G25G24G12
 129338985.251 6  24612390.347
 113403737.514 8  21580008.411
 130368685.862 6  24808329.970
 125492306.762 7  23880390.749
 115005104.606 8  21884736.942
 127745430.527 6  24309145.650
 121896997.317 7  23196226.154
 105817046.603 9  20136311.779
 109639586.767 8  20863707.795
 14 10 27  3 10 30.0000000  0  9G14G02G17G15G06G29G25G24G12
 129287093.124 5  24602515.453
 113352758.709 8  21570307.161
 130462667.608 6  24826214.526
 125578074.363 6  23896712.642
 115014867.238 8  21886594.499
 127649290.297 6  24290850.616
 121828929.638 7  23183274.249
 105811973.559 9  20135346.689
 109613645.464 8  20858771.532
 14 10 27  3 11  0.0000000  0  9G14G02G17G15G06G29G25G24G12
 129235661.014 5  24592727.811
 113302188.537 8  21560684.316
 130556634.688 6  24844095.995
 125663867.970 7  23913038.433
 115025219.013 8  21888563.967
 127553332.177 6  24272589.406
 121760908.253 7  23170329.898
 105807438.925 9  20134483.700
 109587863.747 8  20853865.499
 14 10 27  3 11 30.0000000  0  9G14G02G17G15G06G29G25G24G12
 129184672.343 6  24583025.072
 113252011.061 8  21551136.182
 130650567.053 6  24861973.010
 125749666.559 6  23929365.503
 115036141.977 8  21890643.020
 127457539.268 6  24254360.852
 121692915.324 7  23157390.785
 105803425.816 9  20133719.869
 109562223.481 8  20848986.161
 14 10 27  3 12  0.0000000  0  9G14G02G17G15G06G29G25G24G12
 129134134.933 6  24573407.769
 113202234.928 8  21541664.199
 130744470.146 6  24879840.160
 125835474.318 6  23945693.865
 115047642.788 8  21892831.201
 127361919.897 6  24236164.843
 121624957.720 7  23144459.375
 105799941.559 9  20133057.085
 109536731.624 8  20844135.179
 14 10 27  3 12 30.0000000  0  9G14G02G17G15G06G29G25G24G12
 129084046.980 6  24563877.256
 113152859.212 8  21532268.077
 130838339.554 6  24897704.146
 125921285.120 6  23962022.955
 115059718.366 8  21895129.139
 127266472.147 6  24218001.701
 121557032.581 7  23131533.527
 105796983.863 9  20132494.093
 109511385.355 8  20839311.924
 14 10 27  3 13  0.0000000  0  9G14G02G17G15G06G29G25G24G12
 129034412.474 6  24554432.030
 113103887.532 8  21522948.936
 130932176.054 6  24915559.747
 126007098.736 6  23978353.516
 115072370.788 8  21897536.531
 127171199.331 6  24199871.352
 121489142.130 7  23118613.850
 105794555.852 9  20132032.179
 109486187.271 9  20834516.764
 14 10 27  3 13 30.0000000  0  9G14G02G17G15G06G29G25G24G12
 128985224.253 6  24545071.860
 113055314.155 8  21513705.770
 131025970.562 6  24933409.686
 126092904.279 6  23994680.712
 115085591.888 8  21900052.557
 127076095.042 6  24181774.037
 121421278.692 7  23105699.686
 105792650.268 9  20131669.468
 109461129.404 9  20829748.671
 14 10 27  3 14  0.0000000  0  9G14G02G17G15G06G29G25G24G12
 128936497.337 6  24535798.401
 113007154.480 8  21504541.361
 131119734.780 6  24951250.464
 126178712.625 7  24011009.913
 115099394.957 8  21902679.430
 126981173.700 6  24163709.789
 121353455.714 7  23092794.302
 105791281.563 9  20131409.177
 109436226.219 8  20825009.595
 14 10 27  3 14 30.0000000  0  9G14G02G17G15G06G29G25G24G12
 128888229.939 6  24526614.554
 112959408.015 8  21495455.502
 131213464.536 6  24969086.349
 126264518.268 7  24027338.142
 115113777.248 8  21905416.250
 126886433.950 6  24145681.664
 121285670.811 7  23079894.785
 105790447.625 9  20131250.563
 109411474.840 9  20820299.564
 14 10 27  3 15  0.0000000  0  9G14G02G17G15G06G29G25G24G12
 128840423.158 6  24517517.050
 112912075.758 8  21486448.054
 131307157.868 6  24986917.657
 126350317.864 7  24043665.525
 115128737.869 8  21908263.316
 126791876.562 6  24127689.050
 121217923.505 7  23067002.914
 105790148.722 9  20131193.606
 109386875.191 9  20815618.275
 14 10 27  3 15 30.0000000  0  9G14G02G17G15G06G29G25G24G12
 128793072.398 6  24508505.406
 112865153.927 8  21477519.587
 131400807.478 6  25004738.748
 126436103.056 7  24059989.840
 115144270.890 8  21911219.414
 126697496.885 6  24109729.437
 121150208.291 7  23054116.559
 105790379.464 9  20131237.580
 109362421.432 8  20810964.951
 14 10 27  3 16  0.0000000  0  9G14G02G17G15G06G29G25G24G12
 128746181.001 6  24499582.297
 112818646.536 8  21468669.489
 131494414.280 6  25022551.589
 126521872.883 7  24076311.261
 115160378.346 8  21914283.983
 126603298.543 6  24091803.996
 121082527.545 7  23041237.832
 105791143.140 9  20131382.750
 109338116.424 9  20806340.013
 14 10 27  3 16 30.0000000  0  9G14G02G17G15G06G29G25G24G12
 128699760.237 6  24490749.961
 112772565.100 8  21459900.379
 131587987.373 6  25040356.054
 126607634.991 7  24092631.745
 115177069.785 8  21917460.699
 126509292.441 6  24073914.198
 121014891.362 7  23028366.212
 105792450.373 9  20131631.708
 109313970.396 9  20801745.259
 14 10 27  3 17  0.0000000  0  9G14G02G17G15G06G29G25G24G12
 128653797.983 6  24482002.213
 112726898.597 8  21451210.072
 131681511.900 6  25058154.990
 126693373.647 7  24108946.691
 115194331.811 8  21920745.075
 126415466.786 6  24056060.519
 120947286.868 7  23015503.044
 105794288.295 8  20131981.052
 109289970.387 8  20797178.087
 14 10 27  3 17 30.0000000  0  9G14G02G17G15G06G29G25G24G12
 128608297.977 6  24473343.816
 112681651.237 8  21442599.990
 131774988.532 6  25075942.215
 126779088.558 7  24125258.132
 115212166.615 8  21924139.215
 126321825.286 6  24038241.531
 120879716.754 7  23002644.469
 105796660.303 9  20132432.737
 109266119.329 8  20792639.541
 14 10 27  3 18  0.0000000  0  9G14G02G17G15G06G29G25G24G12
 128563269.256 6  24464774.777
 112636832.980 8  21434071.540
 131868424.444 6  25093723.401
 126864784.853 7  24141564.609
 115230581.907 8  21927643.293
 126228376.961 6  24020458.702
 120812189.266 7  22989793.050
 105799575.268 9  20132987.523
 109242425.548 8  20788130.824
 14 10 27  3 18 30.0000000  0  9G14G02G17G15G06G29G25G24G12
 128518715.458 6  24456296.998
 112592447.714 8  21425625.131
 131961820.511 6  25111497.213
 126950462.240 7  24157869.360
 115249579.475 8  21931258.676
 126135125.564 6  24002712.684
 120744706.871 7  22976952.728
 105803035.661 9  20133646.075
 109218891.733 8  20783652.388
 14 10 27  3 19  0.0000000  0  9G14G02G17G15G06G29G25G24G12
 128474639.693 6  24447907.697
 112548499.652 8  21417262.228
 132055177.359 6  25129262.702
 127036120.038 7  24174169.212
 115269161.128 8  21934984.725
 126042073.896 6  23985006.037
 120677271.917 7  22964120.726
 105807044.096 8  20134408.796
 109195520.635 8  20779204.875
 14 10 27  3 19 30.0000000  0  9G14G02G17G15G06G29G25G24G12
 128431037.814 6  24439610.697
 112504985.165 8  21408981.877
 132148488.585 6  25147017.882
 127121750.617 7  24190464.208
 115289321.281 8  21938821.305
 125949218.662 6  23967335.797
 120609879.541 7  22951295.629
 105811596.424 8  20135274.944
 109172306.596 8  20774787.297
 14 10 27  3 20  0.0000000  0  9G14G02G17G15G06G29G25G24G12
 128387908.765 6  24431404.988
 112461903.931 8  21400784.071
 132241750.992 6  25164766.547
 127207349.185 7  24206753.342
 115310057.352 8  21942767.503
 125856558.706 7  23949704.233
 120542527.861 7  22938478.369
 105816690.791 8  20136244.170
 109149248.541 8  20770399.549
 14 10 27  3 20 30.0000000  0  9G14G02G17G15G06G29G25G24G12
 128345242.612 6  24423286.735
 112419246.550 8  21392666.241
 132334951.856 6  25182499.855
 127292901.763 7  24223032.983
 115331357.706 8  21946820.137
 125764083.717 7  23932107.074
 120475205.966 7  22925667.584
 105822316.449 9  20137315.055
 109126335.944 8  20766039.739
 14 10 27  3 21  0.0000000  0  9G14G02G17G15G06G29G25G24G12
 128303050.648 6  24415255.901
 112377025.045 8  21384631.531
 132428100.125 6  25200229.303
 127378416.140 7  24239307.179
 115353232.098 8  21950983.107
 125671805.580 6  23914547.050
 120407924.341 7  22912864.597
 105828484.458 9  20138488.731
 109103578.863 8  20761709.206
 14 10 27  3 21 30.0000000  0  9G14G02G17G15G06G29G25G24G12
 128261330.096 6  24407316.266
 112335237.356 9  21376679.385
 132521190.982 6  25217942.626
 127463886.243 7  24255570.904
 115375676.489 8  21955254.446
 125579721.526 6  23897024.328
 120340679.766 7  22900068.190
 105835191.372 9  20139764.991
 109080974.207 8  20757407.703
 14 10 27  3 22  0.0000000  0  9G14G02G17G15G06G29G25G24G12
 128220078.265 6  24399468.002
 112293881.652 8  21368810.162
 132614219.699 6  25235644.836
 127549305.524 6  24271826.031
 115398686.563 8  21959633.017
 125487829.043 6  23879536.885
 120273468.759 7  22887278.382
 105842433.983 8  20141143.220
 109058519.313 8  20753134.633
 14 10 27  3 22 30.0000000  0  9G14G02G17G15G06G29G25G24G12
 128179303.764 6  24391709.848
 112252966.925 8  21361024.098
 132707192.304 6  25253336.839
 127634678.757 6  24288070.742
 115422269.318 8  21964120.336
 125396136.859 7  23862088.742
 120206299.140 7  22874496.493
 105850220.144 9  20142625.004
 109036221.774 8  20748891.562
 14 10 27  3 23  0.0000000  0  9G14G02G17G15G06G29G25G24G12
 128139008.221 6  24384040.942
 112212494.865 8  21353322.516
 132800108.006 6  25271017.527
 127720003.267 6  24304306.996
 115446424.304 8  21968717.279
 125304646.195 7  23844678.861
 120139171.357 7  22861722.541
 105858550.912 8  20144210.249
 109014082.026 8  20744678.663
 14 10 27  3 23 30.0000000  0  9G14G02G17G15G06G29G25G24G12
 128099193.143 6  24376464.039
 112172468.840 8  21345705.681
 132892966.590 6  25288689.430
 127805278.358 6  24320534.756
 115471152.188 8  21973422.504
 125213359.224 7  23827307.728
 120072087.053 7  22848957.134
 105867428.039 9  20145899.532
 108992101.550 8  20740495.765
 14 10 27  3 24  0.0000000  0  9G14G02G17G15G06G29G25G24G12
 128059858.967 6  24368978.020
 112132889.669 8  21338174.046
 132985766.257 5  25306346.577
 127890500.534 6  24336753.203
 115496451.719 8  21978236.979
 125122276.663 7  23809974.518
 120005045.795 7  22836199.466
 105876850.330 8  20147692.344
 108970279.680 8  20736343.281
 14 10 27  3 24 30.0000000  0  9G14G02G17G15G06G29G25G24G12
 128020998.515 6  24361585.433
 112093750.745 8  21330726.293
 133078497.590 6  25323995.847
 127975659.049 6  24352958.259
 115522313.978 8  21983158.584
 125031391.983 7  23792679.932
 119938039.731 7  22823448.870
 105886810.533 9  20149587.571
 108948610.103 8  20732219.569
 14 10 27  3 25  0.0000000  0  9G14G02G17G15G06G29G25G24G12
 127982617.353 6  24354281.428
 112055058.584 8  21323363.595
 133171164.183 5  25341627.523
 128060756.203 6  24369150.941
 115548743.248 8  21988187.874
 124940710.468 7  23775424.284
 119871074.206 7  22810705.922
 105897313.865 9  20151586.357
 108927097.153 8  20728125.527
 14 10 27  3 25 30.0000000  0  9G14G02G17G15G06G29G25G24G12
 127944711.896 6  24347068.938
 112016809.359 8  21316084.856
 133263760.109 5  25359251.006
 128145784.705 6  24385331.603
 115575734.108 8  21993324.096
 124850228.391 6  23758205.440
 119804144.772 7  22797970.075
 105908356.238 9  20153687.642
 108905737.228 8  20724060.878
 14 10 27  3 26  0.0000000  0  9G14G02G17G15G06G29G25G24G12
 127907289.764 6  24339947.506
 111979012.532 8  21308892.681
 133356291.493 5  25376858.032
 128230748.648 6  24401500.291
 115603292.614 8  21998568.148
 124759954.178 6  23741026.125
 119737258.543 7  22785240.533
 105919944.309 9  20155893.060
 108884537.083 8  20720026.485
 14 10 27  3 26 30.0000000  0  9G14G02G17G15G06G29G25G24G12
 127870351.128 6  24332918.389
 111941668.471 8  21301785.910
 133448756.231 5  25394454.432
 128315644.770 6  24417654.435
 115631417.104 8  22003919.706
 124669887.740 6  23723887.196
 119670415.027 7  22772521.211
 105932077.906 9  20158201.796
 108863496.534 8  20716022.907
 14 10 27  3 27  0.0000000  0  9G14G02G17G15G06G29G25G24G12
 127833892.617 6  24325978.769
 111904774.405 8  21294765.479
 133541148.909 5  25412037.491
 128400466.448 7  24433796.792
 115660102.967 8  22009379.006
 124580026.316 6  23706787.673
 119603610.701 7  22759808.173
 105944753.062 9  20160613.761
 108842611.881 8  20712048.289
 14 10 27  3 27 30.0000000  0  9G14G02G17G15G06G29G25G24G12
 127797917.770 6  24319132.763
 111868334.803 8  21287831.226
 133633471.414 5  25429603.981
 128485214.246 6  24449923.882
 115689352.241 8  22014945.324
 124490373.751 6  23689727.395
 119536848.809 7  22747104.774
 105957972.570 9  20163129.433
 108821886.417 9  20708104.690
 14 10 27  3 28  0.0000000  0  9G14G02G17G15G06G29G25G24G12
 127762427.864 6  24312380.545
 111832351.840 8  21280983.836
 133725723.056 5  25447159.545
 128569885.947 6  24466036.198
 115719164.556 8  22020617.998
 124400931.731 6  23672706.584
 119470130.133 7  22734408.522
 105971736.868 9  20165748.734
 108801321.637 9  20704191.473
 14 10 27  3 28 30.0000000  0  9G14G02G17G15G06G29G25G24G12
 127727427.237 6  24305719.308
 111796829.612 8  21274224.092
 133817905.520 6  25464702.079
 128654482.074 6  24482133.507
 115749541.888 8  22026398.576
 124311703.989 6  23655726.890
 119403457.909 7  22721721.037
 105986049.895 9  20168472.580
 108780920.719 9  20700309.070
 14 10 27  3 29  0.0000000  0  9G14G02G17G15G06G29G25G24G12
 127692907.637 6  24299151.046
 111761761.815 8  21267550.712
 133910009.881 5  25482229.330
 128738991.833 6  24498215.221
 115780475.462 8  22032285.280
 124222683.458 6  23638787.883
 119336824.660 7  22709041.924
 106000903.108 9  20171299.279
 108760676.217 9  20696457.024
 14 10 27  3 29 30.0000000  0  9G14G02G17G15G06G29G25G24G12
 127658876.754 6  24292673.844
 111727156.589 8  21260965.969
 134002042.009 5  25499742.193
 128823419.295 6  24514280.679
 115811971.211 8  22038278.427
 124133878.418 6  23621888.768
 119270237.526 7  22696369.884
 106016304.295 9  20174229.795
 108740595.577 9  20692635.877
 14 10 27  3 30  0.0000000  0  9G14G02G17G15G06G29G25G24G12
 127625334.376 6  24286290.369
 111693013.794 8  21254468.711
 134093999.042 6  25517241.503
 128907761.142 6  24530330.881
 115844026.653 8  22044378.706
 124045288.248 6  23605030.311
 119203695.411 7  22683708.082
 106032251.600 9  20177264.340
 108720677.213 9  20688845.388
 14 10 27  3 30 30.0000000  0  9G14G02G17G15G06G29G25G24G12
 127592278.474 6  24280001.051
 111659332.632 8  21248059.330
 134185877.479 6  25534726.444
 128992011.942 6  24546363.870
 115876638.285 8  22050584.297
 123956911.302 7  23588213.164
 119137196.183 7  22671052.989
 106048742.538 9  20180402.579
 108700919.511 9  20685085.897
 14 10 27  3 31  0.0000000  0  9G14G02G17G15G06G29G25G24G12
 127559716.723 6  24273805.618
 111626121.474 8  21241739.276
 134277683.925 5  25552193.711
 129076176.570 6  24562379.625
 115909812.551 8  22056897.130
 123868755.762 7  23571438.226
 119070747.629 7  22658408.403
 106065784.371 9  20183645.394
 108681330.338 9  20681358.210
 14 10 27  3 31 30.0000000  0  9G14G02G17G15G06G29G25G24G12
 127527649.098 5  24267704.194
 111593381.137 8  21235509.427
 134369415.766 6  25569652.284
 129160252.016 6  24578378.468
 115943547.703 8  22063316.565
 123780821.949 7  23554703.376
 119004349.424 7  22645773.985
 106083376.400 9  20186993.208
 108661909.658 9  20677662.570
 14 10 27  3 32  0.0000000  0  9G14G02G17G15G06G29G25G24G12
 127496069.189 5  24261692.463
 111561105.904 8  21229367.540
 134461066.069 5  25587091.448
 129244228.493 6  24594358.947
 115977835.820 8  22069841.810
 123693104.014 7  23538011.671
 118937995.089 7  22633146.477
 106101511.678 9  20190444.467
 108642650.612 9  20673997.828
 14 10 27  3 32 30.0000000  0  9G14G02G17G15G06G29G25G24G12
 127464979.091 6  24255776.978
 111529298.389 8  21223314.708
 134552634.615 6  25604517.511
 129328105.137 6  24610320.669
 116012677.130 8  22076471.913
 123605604.414 7  23521361.726
 118871686.356 7  22620528.643
 106120191.633 9  20193999.038
 108623555.838 9  20670364.239
 14 10 27  3 33  0.0000000  0  9G14G02G17G15G06G29G25G24G12
 127434388.971 6  24249955.404
 111497969.351 8  21217352.889
 134644129.973 6  25621929.735
 129411888.971 6  24626263.420
 116048080.185 8  22083209.181
 123518333.439 7  23504754.401
 118805433.279 7  22607921.102
 106139425.817 9  20197659.272
 108604635.058 9  20666763.429
 14 10 27  3 33 30.0000000  0  9G14G02G17G15G06G29G25G24G12
 127404298.865 6  24244229.150
 111467120.135 8  21211482.384
 134735551.077 6  25639325.715
 129495577.240 6  24642188.836
 116084043.649 8  22090052.145
 123431292.057 7  23488191.370
 118739236.021 7  22595323.422
 106159214.247 9  20201425.009
 108585888.238 9  20663195.860
 14 10 27  3 34  0.0000000  0  9G14G02G17G15G06G29G25G24G12
 127374705.887 6  24238597.702
 111436748.476 8  21205703.263
 134826893.483 6  25656710.300
 129579163.950 6  24658094.915
 116120562.905 8  22097001.920
 123344477.422 7  23471670.581
 118673091.626 7  22582736.701
 106179553.207 9  20205295.250
 108567312.720 9  20659661.079
 14 10 27  3 34 30.0000000  0  9G14G02G17G15G06G29G25G24G12
 127345602.018 6  24233059.772
 111406846.848 8  21200012.910
 134918147.378 6  25674073.568
 129662637.676 6  24673978.094
 116157628.123 8  22104054.682
 123257881.944 7  23455192.386
 118606991.750 7  22570157.922
 106200433.413 9  20209268.682
 108548900.469 9  20656157.236
 14 10 27  3 35  0.0000000  0  9G14G02G17G15G06G29G25G24G12
 127316999.080 6  24227617.472
 111377428.031 8  21194414.753
 135009323.396 6  25691423.253
 129746008.220 6  24689844.782
 116195249.757 8  22111214.580
 123171518.140 7  23438757.782
 118540948.561 7  22557590.993
 106221866.969 9  20213347.051
 108530663.692 9  20652686.918
 14 10 27  3 35 30.0000000  0  9G14G02G17G15G06G29G25G24G12
 127288895.296 5  24222268.477
 111348490.781 8  21188908.241
 135100418.446 6  25708758.455
 129829270.733 6  24705690.128
 116233424.146 8  22118478.682
 123085384.537 7  23422367.019
 118474960.046 7  22545034.098
 106243850.871 9  20217530.734
 108512600.269 9  20649249.439
 14 10 27  3 36  0.0000000  0  9G14G02G17G15G06G29G25G24G12
 127261292.559 5  24217017.003
 111320037.890 8  21183493.704
 135191432.929 6  25726078.921
 129912423.954 6  24721511.435
 116272151.591 8  22125848.480
 122999483.290 7  23406020.991
 118409028.132 7  22532486.960
 106266386.787 9  20221819.272
 108494712.564 9  20645845.295
 14 10 27  3 36 30.0000000  0  9G14G02G17G15G06G29G25G24G12
 127234187.521 6  24211858.729
 111292066.756 8  21178170.990
 135282362.842 5  25743380.478
 129995461.642 6  24737314.612
 116311427.265 8  22133322.480
 122913811.877 7  23389717.384
 118343149.763 7  22519950.990
 106289470.519 9  20226211.830
 108476997.492 9  20642474.551
 14 10 27  3 37  0.0000000  0  8G14G02G15G06G29G25G24G12
 127207578.722 6  24206795.869
 111264576.746 8  21172940.049
 130078379.728 6  24753095.093
 116351248.104 8  22140899.936
 122828369.226 7  23373458.710
 118277323.636 7  22507424.247
 106313100.363 9  20230708.523
 108459453.776 9  20639136.279
 14 10 27  3 37 30.0000000  0  8G14G02G15G06G29G25G24G12
 127181468.568 6  24201829.713
 111237570.797 8  21167800.699
 130161177.805 6  24768848.746
 116391614.745 8  22148581.094
 122743157.970 7  23357243.852
 118211552.134 7  22494908.649
 106337277.764 9  20235309.380
 108442083.928 9  20635830.868
 14 10 27  3 38  0.0000000  0  8G14G02G15G06G29G25G24G12
 127155852.086 6  24196952.958
 111211044.951 8  21162753.187
 130243848.448 6  24784579.831
 116432520.674 8  22156366.366
 122658174.247 7  23341071.995
 118145830.511 7  22482402.107
 106361997.315 9  20240013.393
 108424882.586 9  20632557.278
 14 10 27  3 38 30.0000000  0  8G14G02G15G06G29G25G24G12
 127130732.450 6  24192171.679
 111185002.945 8  21157797.841
 130326391.204 6  24800287.777
 116473967.201 8  22164252.626
 122573421.407 7  23324942.883
 118080161.972 7  22469906.616
 106387261.477 9  20244820.950
 108407854.110 8  20629317.058
 14 10 27  3 39  0.0000000  0  8G14G02G15G06G29G25G24G12
 127106110.082 6  24187484.965
 111159446.425 8  21152934.378
 130408804.432 6  24815970.692
 116515953.620 7  22172241.952
 122488900.582 7  23308859.956
 118014547.655 7  22457420.158
 106413070.355 9  20249732.272
 108390999.509 8  20626109.565
 14 10 27  3 39 30.0000000  0  8G14G02G15G06G29G25G24G12
 127081981.481 6  24182895.090
 111134372.294 8  21148162.957
 130491082.489 6  24831628.051
 116558474.365 7  22180334.038
 122404608.755 7  23292819.746
 117948983.880 7  22444943.903
 106439419.696 9  20254746.293
 108374314.895 9  20622935.052
 14 10 27  3 40  0.0000000  0  8G14G02G15G06G29G25G24G12
 127058347.693 6  24178398.004
 111109782.170 8  21143483.509
 130573223.234 5  24847258.874
 116601528.927 7  22188527.052
 122320547.497 7  23276823.698
 117883472.077 7  22432477.403
 106466309.711 9  20259863.315
 108357802.120 8  20619792.568
 14 10 27  3 40 30.0000000  0  8G14G02G15G06G29G25G24G12
 127035218.184 6  24173995.719
 111085686.595 8  21138898.244
 130655233.864 5  24862863.130
 116645125.394 8  22196823.466
 122236726.990 7  23260873.150
 117818022.295 7  22420023.020
 106493749.601 9  20265085.003
 108341471.102 8  20616684.864
 14 10 27  3 41  0.0000000  0  8G14G02G15G06G29G25G24G12
 127012595.407 5  24169690.567
 111062089.030 8  21134408.055
 130737114.286 5  24878447.371
 116689264.465 7  22205223.069
 122153150.285 7  23244968.336
 117752637.187 7  22407580.603
 106521741.182 9  20270411.619
 108325324.382 8  20613612.140
 14 10 27  3 41 30.0000000  0  8G14G02G15G06G29G25G24G12
 126990476.339 5  24165483.111
 111038986.853 8  21130011.826
 130818858.881 5  24894001.691
 116733941.457 7  22213724.525
 122069815.308 7  23229109.416
 117687314.089 7  22395150.069
 106550280.570 9  20275842.725
 108309359.544 9  20610574.323
 14 10 27  3 42  0.0000000  0  8G14G02G15G06G29G25G24G12
 126968858.172 6  24161367.540
 111016378.207 8  21125709.426
 130900462.269 5  24909531.136
 116779151.939 7  22222327.844
 121986719.306 7  23213297.785
 117622050.603 7  22382730.820
 106579364.737 9  20281377.276
 108293574.439 9  20607570.531
 14 10 27  3 42 30.0000000  0  8G14G02G15G06G29G25G24G12
 126947741.256 6  24157349.862
 110994263.852 8  21121501.220
 130981921.713 5  24925034.413
 116824894.207 7  22231032.191
 121903863.012 7  23197530.785
 117556847.090 7  22370322.722
 106608992.526 9  20287015.214
 108277969.157 8  20604600.918
 14 10 27  3 43  0.0000000  0  8G14G02G15G06G29G25G24G12
 126927124.073 6  24153427.138
 110972643.216 9  21117386.901
 131063233.824 4  24940506.808
 116871165.621 7  22239837.665
 121821245.763 7  23181809.187
 117491702.998 7  22357926.165
 106639162.646 9  20292756.391
 108262543.472 9  20601665.820
 14 10 27  3 43 30.0000000  0  8G14G02G15G06G29G25G24G12
 126907007.971 6  24149598.981
 110951519.042 8  21113367.229
 131144400.194 4  24955946.815
 116917966.135 8  22248743.415
 121738870.305 7  23166133.614
 117426620.399 7  22345541.340
 106669875.977 9  20298600.813
 108247299.599 9  20598764.838
 14 10 27  3 44  0.0000000  0  8G14G02G10G06G29G25G24G12
 126887392.163 6  24145866.114
 110930890.894 8  21109441.401
 133585749.208 4  25420517.031
 116965293.125 8  22257749.432
 121656736.096 7  23150504.352
 117361598.878 7  22333168.051
 106701130.954 9  20304548.574
 108232237.244 9  20595898.743
 14 10 27  3 44 30.0000000  0  8G14G02G10G06G29G25G24G12
 126868276.823 6  24142228.331
 110910759.563 8  21105610.780
 133524719.337 6  25408907.047
 117013144.886 8  22266854.910
 121574843.877 7  23134920.320
 117296638.783 7  22320806.843
 106732926.544 9  20310599.244
 108217356.339 9  20593067.313
 14 10 27  3 45  0.0000000  0  7G14G02G06G29G25G24G12
 126849659.852 6  24138686.221
 110891124.217 8  21101874.389
 117061518.387 8  22276060.290
 121493192.663 7  23119382.967
 117231739.389 7  22308456.381
 106765261.187 9  20316752.352
 108202656.376 9  20590269.801
 14 10 27  3 45 30.0000000  0  7G14G02G06G29G25G24G12
 126831545.146 6  24135239.099
 110871989.249 8  21098233.042
 117110415.333 8  22285365.439
 121411786.712 7  23103891.879
 117166904.621 8  22296118.840
 106798137.334 9  20323008.410
 108188141.581 9  20587507.752
 14 10 27  3 46  0.0000000  0  8G14G02G10G06G29G25G24G12
 126813931.397 6  24131886.530
 110853353.720 8  21094686.943
 133342359.471 6  25374206.934
 117159832.593 8  22294769.460
 121330625.044 7  23088447.796
 117102133.565 7  22283793.530
 106831553.061 9  20329367.285
 108173811.075 9  20584780.779
 14 10 27  3 46 30.0000000  0  8G14G02G10G06G29G25G24G12
 126796812.446 6  24128627.132
 110835212.940 9  21091234.640
 133281834.539 5  25362691.879
 117209762.848 8  22304270.779
 121249702.801 7  23073049.138
 117037421.215 8  22271479.332
 106865501.713 9  20335827.753
 108159659.770 9  20582087.803
 14 10 27  3 47  0.0000000  0  8G14G02G10G06G29G25G24G12
 126780192.371 6  24125466.025
 110817571.466 8  21087877.938
 133221443.571 5  25351198.614
 117260208.542 8  22313870.154
 121169024.912 7  23057695.904
 116972772.334 8  22259177.558
 106899986.742 9  20342390.052
 108145692.184 9  20579429.942
 14 10 27  3 47 30.0000000  0  8G14G02G10G06G29G25G24G12
 126764072.333 6  24122397.418
 110800431.506 8  21084616.316
 133161190.751 6  25339732.319
 117311169.360 8  22323568.282
 121088593.363 7  23042390.355
 116908188.961 8  22246887.626
 106935008.951 9  20349054.370
 108131911.208 8  20576807.334
 14 10 27  3 48  0.0000000  0  8G14G02G10G06G29G25G24G12
 126748459.602 5  24119427.368
 110783800.628 8  21081451.439
 133101085.498 6  25328296.183
 117362650.458 8  22333365.071
 121008415.650 7  23027133.244
 116843678.575 8  22234611.727
 106970574.348 9  20355822.073
 108118324.226 9  20574222.094
 14 10 27  3 48 30.0000000  0  8G14G02G10G06G29G25G24G12
 126733348.898 5  24116552.186
 110767674.750 8  21078382.786
 133041126.233 5  25316884.521
 117414645.494 8  22343258.407
 120928487.608 7  23011923.515
 116779237.268 8  22222349.150
 107006677.666 9  20362692.692
 108104926.748 8  20571672.836
 14 10 27  3 49  0.0000000  0  8G14G02G10G06G29G25G24G12
 126718724.402 6  24113769.648
 110752038.791 8  21075407.515
 132981300.551 6  25305502.573
 117467136.796 8  22353247.598
 120848794.303 7  22996758.342
 116714849.755 7  22210096.361
 107043302.458 9  20369661.965
 108091703.880 9  20569156.620
 14 10 27  3 49 30.0000000  0  8G14G02G10G06G29G25G24G12
 126704601.939 6  24111081.708
 110736909.624 8  21072528.274
 132921627.391 5  25294142.303
 117520138.833 8  22363333.157
 120769352.335 7  22981640.600
 116650532.971 7  22197856.968
 107080464.036 9  20376733.772
 108078672.514 8  20566676.731
 14 10 27  3 50  0.0000000  0  8G14G02G10G06G29G25G24G12
 126690978.434 6  24108489.214
 110722284.937 8  21069745.432
 132862107.054 6  25282820.040
 117573647.036 8  22373515.799
 120690159.239 7  22966570.617
 116586284.803 7  22185631.478
 107118158.508 9  20383906.854
 108065830.454 9  20564232.704
 14 10 27  3 50 30.0000000  0  8G14G02G10G06G29G25G24G12
 126677850.844 6  24105990.489
 110708162.583 9  21067058.100
 132802739.247 6  25271528.008
 117627656.751 8  22383793.734
 120611213.661 7  22951548.652
 116522103.114 7  22173417.565
 107156382.597 9  20391180.482
 108053175.210 9  20561824.455
 14 10 27  3 51  0.0000000  0  8G14G02G10G06G29G25G24G12
 126665225.118 6  24103587.782
 110694548.943 9  21064467.291
 132743533.586 6  25260259.820
 117682172.240 7  22394167.648
 120532521.756 7  22936573.658
 116457994.676 8  22161218.604
 107195141.037 9  20398556.102
 108040714.663 9  20559453.279
 14 10 27  3 51 30.0000000  0  8G14G02G10G06G29G25G24G12
 126653093.329 5  24101279.470
 110681436.754 8  21061972.350
 132684485.094 5  25249020.521
 117737183.860 7  22404635.722
 120454076.163 7  22921645.407
 116393952.450 7  22149031.633
 107234425.599 9  20406031.795
 108028441.239 9  20557117.973
 14 10 27  3 52  0.0000000  0  8G14G02G10G06G29G25G24G12
 126641455.852 6  24099065.562
 110668827.665 9  21059573.175
 132625597.482 6  25237815.691
 117792690.522 7  22415198.862
 120375878.277 7  22906764.868
 116329977.811 7  22136858.049
 107274235.885 9  20413607.623
 108016356.373 9  20554818.225
 14 10 27  3 52 30.0000000  0  8G14G02G10G06G29G25G24G12
 126630311.342 6  24096944.152
 110656721.058 9  21057269.121
 132566863.966 6  25226647.455
 117848689.605 7  22425854.242
 120297928.224 7  22891931.065
 116266070.821 7  22124696.510
 107314570.252 9  20421282.874
 108004459.739 9  20552554.839
 14 10 27  3 53  0.0000000  0  8G14G02G10G06G29G25G24G12
 126619662.288 5  24094917.825
 110645120.194 8  21055061.514
 132508157.294 6  25215500.571
 117905181.845 7  22436605.641
 120220229.100 7  22877145.301
 116202234.835 7  22112549.497
 107355430.255 9  20429058.097
 107992755.105 9  20550327.576
 14 10 27  3 53 30.0000000  0  8G14G02G10G06G29G25G24G12
 126609506.175 6  24092985.617
 110634023.106 9  21052949.874
 132449770.980 6  25204391.386
 117962162.920 7  22447448.400
 120142779.077 7  22862408.237
 116138468.157 7  22100414.387
 107396812.888 9  20436933.146
 107981240.919 9  20548136.144
 14 10 27  3 54  0.0000000  0  8G14G02G10G06G29G25G24G12
 126599846.541 5  24091148.329
 110623434.555 9  21050935.164
 132391647.041 4  25193302.929
 118019635.292 7  22458384.888
 120065582.696 7  22847718.303
 116074775.919 8  22088294.596
 107438721.225 9  20444907.995
 107969922.064 9  20545982.445
 14 10 27  3 54 30.0000000  0  8G14G02G10G06G29G25G24G12
 126590682.388 6  24089404.730
 110613354.621 8  21049016.883
 132333616.481 6  25182266.330
 118077596.560 7  22469414.494
 119988640.183 7  22833076.466
 116011158.395 8  22076188.980
 107481153.823 9  20452982.661
 107958798.956 9  20543865.885
 14 10 27  3 55  0.0000000  0  8G14G02G10G06G29G25G24G12
 126582013.858 6  24087755.948
 110603783.693 9  21047195.800
 132275768.141 6  25171258.996
 118136045.138 7  22480536.840
 119911952.702 7  22818483.425
 115947616.782 8  22064097.212
 107524109.943 9  20461157.226
 107947872.774 9  20541786.907
 14 10 27  3 55 30.0000000  0  8G14G02G10G06G29G25G24G12
 126573835.916 6  24086199.696
 110594717.966 8  21045470.478
 132218100.693 5  25160286.362
 118194974.433 7  22491751.817
 119835516.101 7  22803938.166
 115884147.190 8  22052019.207
 107567584.074 9  20469430.098
 107937139.537 8  20539744.190
 14 10 27  3 56  0.0000000  0  8G14G02G10G06G29G25G24G12
 126566149.652 6  24084736.496
 110586158.842 8  21043841.610
 132160618.538 6  25149346.138
 118254383.916 7  22503056.062
 119759332.158 7  22789440.605
 115820751.937 8  22039955.804
 107611576.541 9  20477801.448
 107926600.749 8  20537738.630
 14 10 27  3 56 30.0000000  0  8G14G02G10G06G29G25G24G12
 126558956.893 6  24083366.279
 110578109.519 8  21042310.248
 132103327.462 5  25138440.006
 118314274.215 7  22514453.112
 119683403.902 7  22774992.143
 115757434.398 8  22027906.748
 107656088.984 9  20486272.094
 107916261.131 8  20535771.051
 14 10 27  3 57  0.0000000  0  8G14G02G10G06G29G25G24G12
 126552255.219 6  24082092.860
 110570568.029 8  21040874.980
 132046228.168 5  25127574.286
 118374641.161 7  22525940.212
 119607730.120 7  22760592.090
 115694193.159 8  22015872.347
 107701117.930 9  20494840.728
 107906118.957 8  20533841.217
 14 10 27  3 57 30.0000000  0  8G14G02G10G06G29G25G24G12
 126546043.407 5  24080909.658
 110563533.827 8  21039536.277
 131989322.794 5  25116748.555
 118435481.926 7  22537518.347
 119532310.323 7  22746239.752
 115631028.334 8  22003852.212
 107746661.683 9  20503507.370
 107896173.940 9  20531948.885
 14 10 27  3 58  0.0000000  0  8G14G02G10G06G29G25G24G12
 126540320.808 6  24079821.332
 110557008.040 8  21038294.940
 131932614.678 6  25105957.166
 118496794.718 7  22549185.680
 119457145.045 7  22731937.081
 115567940.952 8  21991847.259
 107792719.209 9  20512271.918
 107886427.333 8  20530093.940
 14 10 27  3 58 30.0000000  0  7G14G02G06G29G25G24G12
 126535095.416 6  24078824.805
 110550998.689 8  21037151.182
 118558586.110 7  22560944.196
 119382243.703 7  22717683.416
 115504940.511 8  21979858.586
 107839297.746 9  20521135.756
 107876888.339 8  20528278.950
 14 10 27  3 59  0.0000000  0  8G14G02G10G06G29G25G24G12
 126530355.723 6  24077923.703
 110545495.163 9  21036103.996
 131819756.206 6  25084494.307
 118620842.989 7  22572791.125
 119307595.369 7  22703478.229
 115442016.774 7  21967884.530
 107886385.451 9  20530096.141
 107867546.815 9  20526501.497
 14 10 27  3 59 30.0000000  0  8G14G02G10G06G29G25G24G12
 126526109.602 6  24077116.107
 110540505.991 8  21035154.790
 131763668.841 5  25073822.280
 118683571.365 7  22584728.604
 119233208.783 7  22689322.397
 115379178.714 7  21955926.455
 107933988.999 8  20539154.850
 107858411.531 8  20524762.717
 14 10 27  4  0  0.0000000  0  8G14G02G10G06G29G25G24G12
 126522352.373 6  24076401.422
 110536027.805 8  21034302.439
 131707793.811 6  25063188.296
 118746765.660 7  22596753.766
 119159080.646 7  22675216.363
 115316423.691 7  21943984.850
 107982103.941 8  20548310.941
 107849479.898 8  20523063.238
 14 10 27  4  0 30.0000000  0  8G14G02G10G06G29G25G24G12
 126519084.245 6  24075779.179
 110532061.596 8  21033547.902
 131652133.766 5  25052594.363
 118810424.662 7  22608867.670
 119085212.056 7  22661159.929
 115253753.496 8  21932059.275
 108030729.456 8  20557563.942
 107840753.955 8  20521402.812
 14 10 27  4  1  0.0000000  0  8G14G02G10G06G29G25G24G12
 126516303.452 6  24075251.320
 110528606.330 8  21032890.088
 131596690.659 6  25042047.963
 118874545.046 7  22621069.525
 119011603.048 7  22647153.002
 115191167.830 7  21920150.066
 108079863.223 8  20566914.098
 107832232.996 8  20519781.194
 14 10 27  4  1 30.0000000  0  8G14G02G10G06G29G25G24G12
 126514012.261 6  24074815.282
 110525665.140 8  21032330.707
 131541470.522 6  25031538.521
 118939127.483 7  22633359.816
 118938256.683 7  22633196.050
 115128670.352 7  21908256.669
 108129506.745 8  20576360.839
 107823920.660 8  20518199.546
 14 10 27  4  2  0.0000000  0  8G14G02G10G06G29G25G24G12
 126512203.703 6  24074470.728
 110523231.814 8  21031867.363
 131486469.899 6  25021075.229
 119004163.783 7  22645735.647
 118865166.977 7  22619286.788
 115066255.913 7  21896380.206
 108179652.596 8  20585903.469
 107815812.190 8  20516656.664
 14 10 27  4  2 30.0000000  0  8G14G02G10G06G29G25G24G12
 126510878.793 6  24074218.065
 110521308.490 8  21031501.383
 131431693.705 6  25010650.728
 119069653.641 7  22658197.875
 118792336.202 7  22605427.408
 115003927.336 7  21884518.954
 108230301.471 8  20595541.566
 107807909.692 8  20515152.914
 14 10 27  4  3  0.0000000  0  9G14G05G02G10G06G29G25G24G12
 126510034.993 6  24074056.853
 133614097.909 5  25425918.483
 110519892.997 8  21031232.341
 131377142.940 6  25000269.422
 119135592.941 7  22670745.891
 118719763.028 7  22591616.905
 114941683.518 7  21872674.522
 108281449.874 8  20605274.567
 107800212.200 8  20513687.951
 14 10 27  4  3 30.0000000  0  9G14G05G02G10G06G29G25G24G12
 126509676.078 6  24073990.969
 133545580.362 5  25412879.637
 110518990.060 8  21031060.296
 131322824.973 6  24989933.161
 119201983.954 7  22683379.037
 118647452.159 7  22577856.774
 114879529.916 7  21860846.728
 108333101.159 8  20615103.536
 107792725.375 8  20512263.473
 14 10 27  4  4  0.0000000  0  9G14G05G02G10G06G29G25G24G12
 126509798.046 6  24074012.220
 133476914.812 5  25399813.178
 110518596.709 8  21030985.629
 131268740.199 6  24979641.707
 119268821.520 7  22696098.339
 118575400.939 7  22564146.606
 114817464.473 7  21849036.624
 108385251.146 8  20625027.340
 107785446.798 8  20510878.213
 14 10 27  4  4 30.0000000  0  9G14G05G02G10G06G29G25G24G12
 126510403.716 6  24074128.786
 133408106.671 6  25386719.841
 110518716.432 8  21031008.299
 131214894.765 7  24969399.526
 119336107.002 7  22708903.055
 118503613.311 7  22550485.463
 114755491.682 7  21837243.801
 108437901.684 8  20635046.783
 107778380.569 8  20509533.938
 14 10 27  4  5  0.0000000  0  9G14G05G02G10G06G29G25G24G12
 126511489.849 6  24074335.591
 133339155.845 6  25373597.721
 110519347.215 8  21031128.705
 131161289.369 6  24959197.872
 119403835.848 7  22721790.840
 118432087.433 7  22536874.789
 114693610.234 7  21825467.999
 108491048.615 8  20645160.096
 107771525.834 8  20508229.431
 14 10 27  4  5 30.0000000  0  9G14G05G02G10G06G29G25G24G12
 126513062.737 6  24074633.470
 133270072.486 5  25360452.308
 110520496.116 8  21031347.055
 131107925.871 6  24949042.477
 119472013.321 7  22734765.320
 118360831.111 8  22523315.136
 114631828.541 8  21813711.333
 108544698.732 8  20655369.629
 107764890.816 8  20506966.791
 14 10 27  4  6  0.0000000  0  9G14G05G02G10G06G29G25G24G12
 126515111.174 6  24075023.634
 133200848.819 6  25347279.434
 110522152.732 9  21031662.434
 131054816.322 6  24938938.644
 119540626.631 7  22747821.599
 118289834.317 8  22509805.280
 114570137.054 7  21801972.150
 108598839.752 8  20665672.566
 107758465.729 8  20505744.312
 14 10 27  4  6 30.0000000  0  9G14G05G02G10G06G29G25G24G12
 126517640.449 6  24075504.795
 133131493.014 6  25334082.285
 110524322.725 8  21032075.197
 131001958.019 6  24928876.830
 119609679.390 7  22760961.854
 118219103.006 8  22496345.631
 114508542.591 7  21790250.961
 108653475.757 8  20676069.232
 107752257.421 8  20504562.778
 14 10 27  4  7  0.0000000  0  9G14G05G02G10G06G29G25G24G12
 126520649.153 6  24076078.072
 133062007.457 6  25320859.655
 110527005.824 8  21032585.798
 130949352.310 6  24918864.548
 119679169.219 7  22774185.550
 118148637.450 8  22482935.926
 114447046.053 7  21778548.427
 108708605.744 8  20686560.160
 107746266.332 8  20503422.976
 14 10 27  4  7 30.0000000  0  9G14G05G02G10G06G29G25G24G12
 126524129.712 6  24076740.317
 132992387.850 6  25307612.236
 110530194.855 9  21033192.836
 130896997.339 5  24908897.103
 119749086.784 7  22787490.475
 118078430.844 8  22469576.359
 114385641.397 7  21766863.461
 108764220.805 8  20697143.556
 107740486.581 8  20502322.877
 14 10 27  4  8  0.0000000  0  9G14G05G02G10G06G29G25G24G12
 126528082.841 6  24077491.567
 132922638.692 6  25294338.176
 110533892.046 8  21033896.456
 130844898.106 5  24898984.292
 119819432.020 7  22800876.396
 118008485.396 8  22456265.836
 114324331.827 8  21755196.785
 108820321.658 8  20707819.327
 107734921.207 8  20501263.902
 14 10 27  4  8 30.0000000  0  9G14G05G02G10G06G29G25G24G12
 126532515.464 6  24078335.361
 132852770.041 6  25281043.001
 110538105.178 9  21034697.736
 130793064.893 5  24889119.818
 119890210.434 7  22814345.734
 117938809.643 7  22443007.163
 114263126.202 7  21743549.766
 108876914.594 8  20718588.518
 107729578.967 8  20500247.145
 14 10 27  4  9  0.0000000  0  9G14G05G02G10G06G29G25G24G12
 126537424.604 6  24079270.060
 132782782.847 6  25267723.927
 110542832.138 8  21035597.874
 130741499.055 6  24879309.592
 119961417.815 7  22827895.710
 117869402.137 8  22429799.397
 114202023.670 7  21731922.776
 108933995.825 8  20729450.645
 107724459.147 8  20499273.005
 14 10 27  4  9 30.0000000  0  9G14G05G02G10G06G29G25G24G12
 126542805.238 6  24080293.111
 132712675.795 6  25254383.539
 110548068.565 9  21036594.175
 130690199.577 6  24869545.512
 120033047.852 7  22841526.999
 117800259.072 7  22416641.402
 114141021.232 7  21720314.357
 108991560.247 8  20740404.811
 107719558.249 8  20498340.658
 14 10 27  4 10  0.0000000  0  9G14G05G02G10G06G29G25G24G12
 126548654.402 6  24081406.720
 132642448.870 6  25241020.676
 110553812.465 8  21037686.908
 130639167.343 6  24859839.537
 120105096.081 7  22855236.901
 117731378.324 8  22403535.119
 114080117.815 8  21708724.679
 109049603.718 8  20751450.242
 107714875.088 8  20497449.279
 14 10 27  4 10 30.0000000  0  9G14G05G02G10G06G29G25G24G12
 126554970.799 6  24082609.676
 132572104.361 6  25227633.527
 110560062.732 9  21038876.313
 130588404.496 6  24850178.327
 120177559.908 7  22869026.552
 117662759.787 8  22390476.826
 114019314.193 8  21697154.431
 109108124.626 8  20762586.284
 107710410.028 8  20496599.860
 14 10 27  4 11  0.0000000  0  9G14G05G02G10G06G29G25G24G12
 126561761.938 7  24083901.742
 132501654.578 6  25214228.128
 110566828.323 9  21040164.114
 130537924.813 6  24840575.303
 120250446.079 7  22882895.969
 117594413.113 8  22377470.914
 113958620.625 7  21685604.731
 109167130.081 8  20773814.878
 107706173.501 8  20495793.816
 14 10 27  4 11 30.0000000  0  9G14G05G02G10G06G29G25G24G12
 126569021.171 7  24085283.540
 132431095.805 6  25200801.567
 110574103.573 9  21041548.502
 130487722.801 6  24831014.945
 120323746.491 7  22896845.358
 117526332.725 8  22364516.330
 113898032.343 7  21674075.482
 109226613.162 8  20785134.193
 107702160.583 8  20495030.353
 14 10 27  4 12  0.0000000  0  9G14G05G02G10G06G29G25G24G12
 126576750.041 7  24086754.123
 132360433.558 6  25187353.076
 110581890.879 9  21043030.456
 130437804.546 5  24821512.705
 120397461.555 7  22910872.632
 117458521.848 7  22351611.859
 113837553.220 7  21662566.030
 109286574.656 8  20796544.342
 107698374.598 8  20494309.845
 14 10 27  4 12 30.0000000  0  9G14G05G02G10G06G29G25G24G12
 126584947.749 7  24088314.831
 132289670.585 6  25173888.056
 110590190.064 9  21044609.659
 130388174.161 5  24812069.369
 120471589.090 7  22924978.334
 117390980.609 8  22338759.690
 113777184.595 7  21651078.203
 109347013.233 8  20808045.577
 107694817.172 9  20493632.818
 14 10 27  4 13  0.0000000  0  9G14G05G02G10G06G29G25G24G12
 126593606.842 7  24089961.829
 132218803.691 6  25160401.966
 110598994.665 9  21046285.032
 130338827.973 6  24802682.179
 120546120.607 7  22939161.120
 117323702.775 8  22325956.935
 113716921.376 7  21639610.783
 109407920.952 8  20819636.124
 107691483.078 8  20492998.423
 14 10 27  4 13 30.0000000  0  9G14G05G02G10G06G29G25G24G12
 126602728.297 7  24091698.417
 132147837.088 6  25146896.843
 110608306.215 9  21048057.042
 130289770.700 6  24793348.348
 120621055.792 7  22953421.358
 117256691.119 8  22313204.948
 113656766.825 7  21628163.857
 109469298.338 8  20831315.581
 107688375.301 8  20492406.851
 14 10 27  4 14  0.0000000  0  9G14G05G02G10G06G29G25G24G12
 126612315.914 7  24093522.451
 132076778.772 6  25133376.513
 110618129.215 9  21049926.349
 130241010.104 6  24784066.188
 120696397.102 7  22967758.202
 117189950.967 8  22300504.151
 113596726.886 7  21616738.618
 109531148.373 8  20843085.326
 107685499.574 8  20491859.679
 14 10 27  4 14 30.0000000  0  9G14G05G02G10G06G29G25G24G12
 126622368.716 6  24095433.991
 132005631.950 6  25119838.489
 110628463.946 9  21051893.119
 130192549.827 6  24774847.365
 120772142.524 7  22982172.530
 117123482.625 8  22287856.011
 113536803.108 7  21605335.699
 109593469.861 8  20854944.976
 107682857.198 9  20491357.000
 14 10 27  4 15  0.0000000  0  9G14G05G02G10G06G29G25G24G12
 126632884.581 6  24097436.284
 131934398.068 6  25106282.354
 110639309.193 9  21053957.233
 130144391.963 6  24765681.202
 120848288.866 7  22996663.745
 117057285.414 8  22275258.852
 113476995.833 7  21593954.813
 109656259.700 8  20866893.474
 107680448.007 9  20490898.657
 14 10 27  4 15 30.0000000  0  9G14G05G02G10G06G29G25G24G12
 126643860.753 6  24099525.949
 131863078.117 6  25092710.606
 110650662.689 9  21056117.290
 130096537.342 6  24756574.963
 120924832.001 7  23011228.753
 116991357.378 8  22262713.438
 113417304.525 7  21582595.711
 109719515.017 8  20878930.665
 107678271.767 8  20490484.545
 14 10 27  4 16  0.0000000  0  9G14G05G02G10G06G29G25G24G12
 126655293.711 6  24101700.482
 131791672.679 6  25079122.788
 110662522.200 9  21058374.183
 130048987.031 6  24747526.536
 121001767.484 7  23025869.134
 116925697.255 8  22250218.598
 113357728.319 7  21571259.025
 109783231.245 8  20891055.542
 107676327.144 8  20490114.496
 14 10 27  4 16 30.0000000  0  9G14G05G02G10G06G29G25G24G12
 126667184.354 6  24103961.758
 131720186.657 6  25065519.306
 110674889.320 9  21060727.942
 130001745.859 6  24738536.914
 121079095.155 7  23040583.721
 116860307.674 8  22237776.426
 113298270.656 8  21559944.645
 109847409.922 8  20903268.108
 107674617.069 8  20489789.158
 14 10 27  4 17  0.0000000  0  9G14G05G02G10G06G29G25G24G12
 126679529.973 6  24106311.176
 131648621.657 6  25051899.730
 110687762.286 9  21063177.027
 129954815.365 6  24729606.893
 121156811.276 7  23055372.876
 116795187.062 8  22225384.314
 113238931.433 8  21548652.512
 109912047.290 8  20915568.186
 107673141.617 8  20489508.563
 14 10 27  4 17 30.0000000  0  9G14G05G02G10G06G29G25G24G12
 126692325.601 6  24108746.699
 131576976.399 6  25038266.696
 110701136.704 9  21065722.699
 129908194.722 6  24720734.209
 121234909.583 7  23070234.630
 116730331.900 8  22213042.175
 113179708.028 8  21537382.705
 109977137.774 8  20927954.576
 107671897.742 9  20489271.914
 14 10 27  4 18  0.0000000  0  9G14G05G02G10G06G29G25G24G12
 126705571.922 6  24111268.885
 131505256.043 6  25024619.545
 110715014.130 9  21068363.138
 129861889.013 6  24711924.487
 121313389.711 7  23085169.557
 116665744.538 8  22200751.894
 113120603.708 8  21526135.535
 110042681.431 8  20940427.639
 107670888.493 9  20489079.467
 14 10 27  4 18 30.0000000  0  9G14G05G02G10G06G29G25G24G12
 126719266.695 6  24113875.061
 131433462.063 6  25010956.978
 110729393.281 9  21071099.348
 129815899.904 6  24703171.745
 121392248.437 7  23100175.777
 116601424.156 8  22188511.846
 113061618.915 7  21514911.154
 110108675.797 9  20952985.635
 107670114.029 8  20488932.516
 14 10 27  4 19  0.0000000  0  9G14G05G02G10G06G29G25G24G12
 126733412.589 6  24116566.417
 131361601.475 6  24997282.311
 110744277.986 9  21073932.036
 129770234.377 6  24694482.069
 121471487.396 7  23115254.384
 116537374.723 8  22176323.639
 113002759.011 8  21503710.160
 110175123.052 8  20965630.006
 107669579.623 8  20488830.843
 14 10 27  4 19 30.0000000  0  9G14G05G02G10G06G29G25G24G12
 126748007.482 6  24119343.325
 131289676.305 6  24983593.776
 110759666.747 9  21076860.195
 129724894.608 6  24685853.277
 121551103.352 7  23130404.650
 116473595.981 8  22164187.091
 112944024.430 8  21492533.719
 110242020.537 9  20978360.394
 107669285.470 8  20488774.539
 14 10 27  4 20  0.0000000  0  9G14G05G02G10G06G29G25G24G12
 126763047.937 6  24122204.731
 131217687.465 6  24969898.083
 110775556.796 9  21079884.151
 129679881.435 6  24677288.525
 121631091.683 7  23145626.761
 116410086.114 8  22152101.821
 112885414.287 8  21481380.778
 110309364.404 8  20991175.524
 107669230.352 8  20488764.218
 14 10 27  4 20 30.0000000  0  9G14G05G02G10G06G29G25G24G12
 126778534.515 6  24125152.577
 131145639.660 6  24956186.867
 110791949.230 9  21083003.505
 129635199.256 6  24668786.200
 121711451.973 7  23160917.802
 116346846.887 8  22140067.233
 112826931.874 8  21470252.021
 110377154.314 9  21004075.897
 107669417.412 8  20488799.863
 14 10 27  4 21  0.0000000  0  9G14G05G02G10G06G29G25G24G12
 126794463.375 6  24128184.868
 131073532.548 6  24942464.484
 110808841.338 9  21086218.067
 129590848.367 6  24660346.421
 121792179.307 7  23176280.098
 116283876.019 8  22128084.581
 112768576.067 8  21459146.896
 110445386.180 9  21017059.997
 107669844.978 8  20488881.033
 14 10 27  4 21 30.0000000  0  9G14G05G02G10G06G29G25G24G12
 126810836.184 6  24131300.923
 131001372.752 6  24928732.830
 110826236.263 9  21089528.261
 129546835.061 6  24651972.002
 121873274.741 7  23191712.456
 116221177.457 7  22116153.241
 112710351.649 8  21448067.655
 110514061.650 9  21030128.466
 107670517.493 8  20489009.272
 14 10 27  4 22  0.0000000  0  9G14G05G02G10G06G29G25G24G12
 126827655.414 6  24134501.258
 130929167.353 6  24914990.214
 110844136.747 9  21092934.373
 129503165.949 6  24643661.691
 121954739.474 7  23207215.346
 116158754.831 8  22104274.859
 112652263.565 8  21437013.477
 110583182.362 8  21043281.577
 107671439.707 8  20489184.983
 14 10 27  4 22 30.0000000  0  9G14G05G02G10G06G29G25G24G12
 126844905.338 5  24137782.149
 130856904.784 6  24901240.970
 110862527.927 9  21096434.288
 129459829.485 6  24635415.474
 122036556.837 7  23222784.176
 116096593.857 8  22092446.083
 112594298.988 8  21425983.582
 110652732.466 8  21056516.853
 107672598.426 8  20489405.275
 14 10 27  4 23  0.0000000  0  9G14G05G02G10G06G29G25G24G12
 126862588.902 5  24141147.836
 130784591.778 6  24887481.341
 110881413.581 9  21100028.400
 129416833.028 6  24627231.505
 122118728.733 7  23238421.062
 116034698.811 7  22080667.500
 112536463.589 8  21414977.824
 110722713.567 8  21069833.623
 107673999.194 8  20489672.135
 14 10 27  4 23 30.0000000  0  9G14G05G02G10G06G29G25G24G12
 126880712.885 5  24144597.348
 130712239.783 6  24873711.498
 110900801.344 9  21103717.594
 129374187.587 6  24619115.074
 122201261.066 7  23254126.006
 115973078.803 8  22068942.315
 112478767.103 8  21403998.541
 110793132.594 8  21083233.888
 107675651.414 8  20489986.466
 14 10 27  4 24  0.0000000  0  9G14G05G02G10G06G29G25G24G12
 126899271.639 5  24148124.175
 130639848.496 6  24859938.406
 110920687.161 9  21107501.703
 129331892.592 6  24611068.284
 122284147.848 7  23269898.606
 115911730.203 8  22057268.136
 112421207.364 8  21393045.266
 110863984.100 8  21096716.414
 107677552.382 8  20490348.236
 14 10 27  4 24 30.0000000  0  9G14G05G02G10G06G29G25G24G12
 126918265.857 4  24151742.890
 130567422.265 6  24846154.865
 110941072.113 9  21111381.051
 129289951.987 6  24603088.563
 122367388.315 7  23285739.369
 115850654.681 7  22045645.775
 112363787.445 8  21382118.723
 110935267.734 9  21110281.563
 107679704.811 8  20490757.781
 14 10 27  4 25  0.0000000  0  9G14G05G02G10G06G29G25G24G12
 126937688.630 5  24155438.537
 130494958.336 6  24832366.674
 110961949.399 9  21115353.988
 129248363.190 6  24595173.012
 122450974.337 7  23301645.511
 115789846.872 7  22034073.943
 112306503.050 8  21371217.699
 111006975.862 8  21123927.263
 107682104.348 8  20491214.428
 14 10 27  4 25 30.0000000  0  9G14G05G02G10G06G29G25G24G12
 126957541.480 4  24159216.963
 130422462.717 6  24818570.237
 110983321.843 9  21119420.945
 129207131.971 6  24587327.480
 122534906.652 7  23317616.469
 115729309.873 8  22022554.590
 112249358.804 8  21360343.593
 111079109.208 8  21137653.680
 107684755.084 8  20491719.074
 14 10 27  4 26  0.0000000  0  9G14G05G02G10G06G29G25G24G12
 126977819.657 5  24163077.903
 130349935.587 7  24804769.690
 111005185.571 8  21123581.363
 129166258.380 6  24579550.415
 122619179.800 7  23333653.386
 115669040.611 7  22011085.541
 112192353.150 8  21349495.460
 111151663.551 8  21151460.891
 107687655.252 8  20492270.772
 14 10 27  4 26 30.0000000  0  9G14G05G02G10G06G29G25G24G12
 126998523.608 5  24167017.711
 130277381.633 6  24790961.635
 111027541.874 8  21127835.533
 129125747.049 6  24571841.237
 122703793.385 7  23349755.807
 115609041.092 8  21999668.276
 112135489.579 8  21338675.365
 111224638.676 8  21165346.967
 107690808.071 8  20492870.858
 14 10 27  4 27  0.0000000  0  9G14G05G02G10G06G29G25G24G12
 127019656.499 5  24171039.660
 130204808.748 6  24777152.892
 111050394.800 8  21132184.515
 129085605.374 6  24564201.856
 122788749.693 7  23365922.372
 115549317.264 7  21988303.123
 112078774.248 8  21327882.520
 111298037.035 8  21179314.181
 107694219.005 8  20493520.002
 14 10 27  4 27 30.0000000  0  9G14G05G02G10G06G29G25G24G12
 127041216.109 5  24175142.334
 130132219.176 6  24763336.845
 111073742.953 8  21136627.122
 129045835.482 6  24556633.727
 122874045.620 7  23382153.110
 115489867.863 7  21976990.047
 112022208.048 8  21317118.258
 111371856.138 8  21193361.879
 107697888.707 8  20494218.398
 14 10 27  4 28  0.0000000  0  9G14G05G02G10G06G29G25G24G12
 127063188.072 5  24179323.471
 130059603.586 6  24749519.375
 111097573.068 8  21141162.394
 129006427.501 6  24549133.087
 122959666.049 7  23398446.312
 115430679.862 7  21965726.982
 111965779.719 8  21306380.422
 111446081.264 8  21207486.281
 107701805.507 8  20494963.648
 14 10 27  4 28 30.0000000  0  9G14G05G02G10G06G29G25G24G12
 127085577.910 4  24183580.390
 129986971.828 6  24735698.093
 111121891.348 8  21145789.757
 128967391.475 6  24541707.011
 123045615.868 7  23414802.853
 115371761.300 8  21954515.641
 111909498.108 8  21295670.723
 111520717.309 8  21221689.392
 107705978.057 8  20495757.739
 14 10 27  4 29  0.0000000  0  9G14G05G02G10G06G29G25G24G12
 127108388.448 5  24187924.447
 129914331.096 6  24721874.197
 111146701.296 8  21150511.109
 128928733.983 6  24534349.107
 123131896.806 7  23431221.160
 115313116.513 7  21943355.890
 111853368.894 8  21284989.540
 111595767.238 8  21235970.788
 107710411.436 8  20496601.595
 14 10 27  4 29 30.0000000  0  9G14G05G02G10G06G29G25G24G12
 127131609.642 5  24192342.597
 129841676.375 6  24708048.685
 111171993.868 8  21155324.158
 128890449.370 6  24527064.275
 123218498.026 7  23447701.154
 115254736.885 8  21932246.139
 111797385.223 8  21274336.471
 111671220.382 8  21250328.904
 107715098.431 8  20497493.270
 14 10 27  4 30  0.0000000  0  9G14G05G02G10G06G29G25G24G12
 127155236.822 5  24196837.464
 129769007.331 6  24694221.395
 111197765.064 8  21160228.359
 128852537.684 6  24519848.233
 123305414.152 7  23464240.435
 115196619.768 8  21921187.450
 111741545.700 8  21263710.204
 111747071.405 8  21264762.949
 107720037.129 8  20498433.303
 14 10 27  4 30 30.0000000  0 10G14G05G02G10G31G06G29G25G24G12
 127179280.393 5  24201412.115
 129696338.922 6  24680393.082
 111224026.140 8  21165225.603
 128815013.336 6  24512709.333
 133838731.373 6  25468663.320
 123392654.622 7  23480842.265
 115138776.907 8  21910179.924
 111685863.733 8  21253114.527
 111823329.945 8  21279274.629
 107725240.584 8  20499423.447
 14 10 27  4 31  0.0000000  0 10G14G05G02G10G31G06G29G25G24G12
 127203729.547 4  24206066.888
 129623666.084 6  24666563.966
 111250767.397 8  21170314.273
 128777870.353 6  24505641.226
 133739003.032 6  25449683.098
 123480208.355 7  23497503.424
 115081199.980 7  21899223.801
 111630332.228 7  21242546.927
 111899985.927 8  21293862.112
 107730701.203 8  20500462.542
 14 10 27  4 31 30.0000000  0 10G14G05G02G10G31G06G29G25G24G12
 127228583.664 4  24210797.499
 129550992.346 6  24652733.695
 111277988.990 8  21175494.279
 128741112.166 7  24498648.299
 133639386.133 6  25430727.713
 123568073.725 7  23514224.439
 115023889.613 7  21888317.931
 111574953.589 7  21232008.927
 111977037.705 8  21308524.510
 107736421.108 8  20501551.053
 14 10 27  4 32  0.0000000  0 10G14G05G02G10G31G06G29G25G24G12
 127253842.881 4  24215598.770
 129478320.408 6  24638906.067
 111305689.583 8  21180765.477
 128704741.049 6  24491726.722
 133539882.691 6  25411790.850
 123656248.018 7  23531003.029
 114966845.265 8  21877462.422
 111519729.082 8  21221500.162
 112054482.793 8  21323261.891
 107742401.035 8  20502689.058
 14 10 27  4 32 30.0000000  0 10G14G05G02G10G31G06G29G25G24G12
 127279506.935 4  24220487.385
 129405659.241 6  24625078.195
 111333874.257 8  21186129.192
 128668765.768 6  24484879.037
 133440500.712 5  25392878.942
 123744734.670 7  23547841.430
 114910073.811 8  21866659.145
 111464666.177 8  21211021.854
 112132324.741 8  21338074.881
 107748648.039 8  20503877.849
 14 10 27  4 33  0.0000000  0 10G14G05G02G10G31G06G29G25G24G12
 127305573.403 3  24225443.476
 129333009.185 6  24611252.923
 111362539.028 8  21191583.949
 128633185.742 6  24478107.088
 133341240.363 6  25373992.132
 123833528.194 7  23564738.287
 114853571.793 8  21855907.157
 111409763.477 8  21200574.467
 112210559.135 8  21352962.680
 107755160.265 8  20505116.759
 14 10 27  4 33 30.0000000  0 10G14G05G02G10G31G06G29G25G24G12
 127332048.532 4  24230478.896
 129260375.493 6  24597431.433
 111391685.130 8  21197130.001
 128598005.665 6  24471413.389
 133242105.917 6  25355127.814
 123922628.252 6  23581694.322
 114797341.208 8  21845207.527
 111355024.594 8  21190158.000
 112289185.314 8  21367924.653
 107761940.882 8  20506407.419
 14 10 27  4 34  0.0000000  0 10G14G05G02G10G31G06G29G25G24G12
 127358926.551 4  24235599.617
 129187768.611 6  24583615.167
 111421319.319 8  21202769.712
 128563235.884 6  24464797.498
 133143107.697 6  25336289.315
 124012040.080 6  23598708.675
 114741389.932 8  21834559.622
 111300458.932 8  21179774.353
 112368209.395 8  21382962.451
 107768998.614 8  20507750.532
 14 10 27  4 34 30.0000000  0 10G14G05G02G10G31G06G29G25G24G12
 127386193.653 4  24240789.147
 129115174.446 6  24569799.990
 111451423.337 8  21208498.245
 128528861.678 6  24458256.497
 133044231.100 5  25317472.904
 124101744.040 6  23615779.700
 114685700.778 8  21823962.632
 111246050.795 8  21169421.061
 112447611.571 8  21398071.532
 107776317.384 8  20509143.230
 14 10 27  4 35  0.0000000  0 10G14G05G02G10G31G06G29G25G24G12
 127413852.942 4  24246047.920
 129042600.435 6  24555989.869
 111482000.462 8  21214317.137
 128494889.880 6  24451792.473
 132945482.851 6  25298681.615
 124191741.783 6  23632905.014
 114630277.911 8  21813416.557
 111191805.985 8  21159099.022
 112527393.905 8  21413254.184
 107783902.636 8  20510586.459
 14 10 27  4 35 30.0000000  0 10G14G05G02G10G31G06G29G25G24G12
 127441911.089 4  24251385.303
 128970058.337 6  24542185.066
 111513058.437 8  21220227.080
 128461331.909 6  24445406.025
 132846874.385 6  25279916.926
 124282039.857 6  23650087.086
 114575130.337 7  21802922.194
 111137735.165 8  21148809.606
 112607563.124 8  21428510.068
 107791764.419 8  20512082.724
 14 10 27  4 36  0.0000000  0 10G14G05G02G10G31G06G29G25G24G12
 127470356.877 4  24256804.499
 128897539.670 7  24528386.348
 111544584.474 8  21226226.011
 128428178.427 6  24439097.708
 132748396.572 6  25261177.253
 124372623.875 6  23667325.827
 114520246.369 8  21792477.856
 111083828.001 8  21138551.046
 112688105.290 8  21443836.891
 107799892.003 8  20513629.387
 14 10 27  4 36 30.0000000  0 10G14G05G02G10G31G06G29G25G24G12
 127499188.262 4  24262286.692
 128825051.932 7  24514591.910
 111576582.266 8  21232315.078
 128395436.732 6  24432866.951
 132650056.366 6  25242464.423
 124463495.948 7  23684619.248
 114465630.282 7  21782084.131
 111030090.658 8  21128325.378
 112769022.549 8  21459234.556
 107808290.849 8  20515227.540
 14 10 27  4 37  0.0000000  0 10G14G05G02G10G31G06G29G25G24G12
 127528401.553 4  24267846.258
 128752594.039 7  24500803.863
 111609046.352 8  21238493.088
 128363104.723 6  24426713.737
 132551851.915 6  25223776.038
 124554649.166 6  23701964.994
 114411277.442 7  21771742.159
 110976520.383 8  21118130.987
 112850308.283 8  21474703.170
 107816957.725 8  20516876.918
 14 10 27  4 37 30.0000000  0 10G14G05G02G10G31G06G29G25G24G12
 127558004.318 4  24273479.321
 128680173.007 7  24487022.411
 111641979.298 8  21244759.858
 128331188.727 6  24420639.824
 132453789.723 6  25205116.555
 124646084.941 6  23719364.038
 114357192.451 8  21761450.172
 110923122.712 8  21107969.691
 112931964.399 8  21490241.501
 107825897.675 8  20518578.192
 14 10 27  4 38  0.0000000  0  9G05G02G10G31G06G29G25G24G12
 128607790.069 7  24473248.356
 111675378.460 8  21251115.634
 128299689.769 6  24414646.490
 132355870.894 6  25186485.706
 124737799.266 6  23736816.676
 114303373.003 8  21751208.546
 110869897.761 8  21097841.857
 113013986.966 8  21505850.319
 107835110.238 8  20520331.277
 14 10 27  4 38 30.0000000  0  9G05G02G10G31G06G29G25G24G12
 128535448.377 7  24459480.959
 111709242.717 8  21257559.757
 128268609.878 6  24408732.362
 132258097.581 6  25167878.812
 124829789.457 6  23754321.266
 114249818.999 8  21741017.454
 110816846.935 8  21087746.493
 113096373.645 8  21521528.088
 107844596.206 8  20522136.693
 14 10 27  4 39  0.0000000  0  9G05G02G10G31G06G29G25G24G12
 128463150.193 6  24445722.738
 111743569.983 8  21264091.991
 128237950.663 6  24402897.004
 132160471.630 6  25149299.355
 124922052.024 6  23771879.498
 114196529.535 8  21730876.526
 110763970.934 8  21077684.583
 113179120.963 8  21537273.960
 107854356.094 9  20523993.475
 14 10 27  4 39 30.0000000  0  9G05G02G10G31G06G29G25G24G12
 128390906.550 7  24431975.310
 111778367.139 8  21270713.922
 128207722.699 6  24397145.330
 132063003.659 6  25130753.850
 125014592.751 6  23789488.861
 114143512.943 8  21720788.358
 110711279.634 8  21067657.648
 113262234.948 8  21553090.287
 107864398.918 9  20525904.781
 14 10 27  4 40  0.0000000  0  9G05G02G10G31G06G29G25G24G12
 128318712.829 7  24418237.720
 111813625.039 8  21277423.244
 128177920.087 6  24391474.593
 131965688.309 6  25112235.761
 125107401.072 6  23807149.902
 114090760.845 8  21710749.430
 110658766.710 8  21057665.323
 113345705.569 8  21568974.431
 107874717.440 9  20527868.925
 14 10 27  4 40 30.0000000  0  9G05G02G10G31G06G29G25G24G12
 128246578.894 7  24404511.174
 111849349.317 8  21284221.527
 128148552.038 6  24385884.533
 131868534.956 6  25093748.862
 125200481.230 6  23824862.732
 114038279.934 7  21700763.055
 110606440.506 8  21047707.761
 113429536.878 8  21584927.166
 107885319.897 8  20529886.419
 14 10 27  4 41  0.0000000  0  9G05G02G10G31G06G29G25G24G12
 128174505.849 7  24390796.044
 111885536.991 8  21291108.034
 128119618.976 6  24380379.200
 131771544.592 6  25075292.099
 125293828.839 6  23842626.010
 113986068.303 7  21690827.609
 110554300.848 8  21037785.633
 113513724.453 8  21600946.906
 107896205.344 8  20531957.833
 14 10 27  4 41 30.0000000  0  9G05G02G10G31G06G29G25G24G12
 128102492.414 7  24377093.187
 111922182.238 8  21298081.116
 128091118.858 6  24374956.170
 131674715.045 7  25056865.463
 125387436.878 6  23860439.452
 113934121.333 7  21680941.748
 110502344.836 8  21027898.773
 113598261.696 8  21617034.463
 107907370.273 8  20534082.176
 14 10 27  4 42  0.0000000  0  9G05G02G10G31G06G29G25G24G12
 128030551.562 7  24363403.570
 111959293.457 8  21305143.335
 128063063.906 6  24369617.219
 131578058.663 6  25038472.352
 125481312.718 6  23878304.240
 113882448.809 7  21671109.348
 110450584.003 8  21018048.948
 113683156.403 8  21633189.232
 107918825.610 8  20536262.335
 14 10 27  4 42 30.0000000  0  9G05G02G10G31G06G29G25G24G12
 127958678.226 7  24349726.228
 111996861.521 8  21312292.191
 128035448.045 6  24364361.609
 131481569.992 6  25020111.393
 125575445.625 6  23896216.456
 113831041.924 7  21661326.922
 110399011.868 8  21008235.279
 113768397.947 8  21649410.515
 107930564.274 8  20538496.162
 14 10 27  4 43  0.0000000  0  9G05G02G10G31G06G29G25G24G12
 127886869.317 7  24336061.133
 112034878.842 8  21319526.427
 128008267.673 6  24359189.788
 131385245.287 6  25001782.029
 125669826.953 6  23914177.338
 113779894.841 8  21651594.175
 110347623.956 8  20998456.342
 113853977.407 8  21665695.882
 107942581.323 8  20540782.826
 14 10 27  4 43 30.0000000  0  9G05G02G10G31G06G29G25G24G12
 127815132.688 7  24322409.654
 112073348.768 8  21326847.184
 127981529.314 6  24354101.424
 131289091.688 5  24983484.131
 125764458.702 6  23932186.128
 113729012.405 8  21641911.665
 110296426.417 8  20988713.888
 113939897.203 8  21682045.843
 107954882.305 8  20543123.798
 14 10 27  4 44  0.0000000  0  9G05G02G10G31G06G29G25G24G12
 127743470.593 7  24308773.294
 112112269.166 8  21334253.922
 127955234.033 6  24349098.995
 131193110.847 6  24965219.847
 125859337.254 6  23950240.801
 113678392.567 8  21632278.630
 110245419.902 8  20979007.598
 114026153.929 8  21698459.564
 107967466.822 8  20545518.608
 14 10 27  4 44 30.0000000  0  9G05G02G10G31G06G29G25G24G12
 127671888.287 7  24295151.122
 112151641.036 8  21341745.579
 127929386.824 6  24344180.343
 131097308.420 6  24946988.875
 125954463.037 6  23968342.349
 113628038.470 8  21622697.251
 110194609.026 8  20969339.029
 114112748.004 8  21714938.279
 107980338.961 8  20547968.188
 14 10 27  4 45  0.0000000  0  9G05G02G10G31G06G29G25G24G12
 127600385.913 7  24281544.975
 112191459.540 8  21349323.485
 127903986.461 6  24339346.663
 131001683.306 7  24928792.444
 126049829.944 7  23986490.511
 113577946.388 8  21613165.413
 110143991.852 8  20959706.736
 114199673.278 8  21731480.076
 107993496.334 8  20550471.641
 14 10 27  4 45 30.0000000  0  9G05G02G10G31G06G29G25G24G12
 127528969.521 6  24267954.116
 112231726.452 8  21356985.538
 127879038.320 6  24334598.400
 130906240.950 7  24910630.842
 126145438.459 6  24004683.518
 113528119.041 8  21603682.831
 110093573.141 8  20950112.507
 114286930.707 8  21748084.162
 108006942.906 8  20553030.756
 14 10 27  4 46  0.0000000  0  9G05G02G10G31G06G29G25G24G12
 127457641.247 6  24254380.684
 112272439.320 8  21364733.189
 127854543.414 6  24329938.431
 130810982.914 6  24892503.439
 126241284.877 6  24022922.881
 113478554.657 7  21594250.936
 110043353.409 8  20940555.631
 114374516.226 8  21764751.375
 108020678.630 8  20555644.417
 14 10 27  4 46 30.0000000  0  9G05G02G10G31G06G29G25G24G12
 127386406.358 6  24240825.533
 112313599.677 8  21372565.611
 127830506.185 6  24325362.690
 130715914.528 6  24874412.809
 126337369.319 6  24041207.795
 113429256.035 7  21584869.867
 109993336.878 8  20931038.098
 114462430.528 8  21781481.152
 108034706.929 8  20558313.808
 14 10 27  4 47  0.0000000  0  9G05G02G10G31G06G29G25G24G12
 127315266.123 6  24227287.194
 112355203.616 8  21380482.593
 127806926.383 6  24320875.958
 130621035.905 6  24856355.268
 126433687.023 6  24059535.679
 113380220.928 8  21575538.568
 109943523.124 8  20921558.715
 114550668.288 8  21798272.027
 108049026.686 8  20561039.171
 14 10 27  4 47 30.0000000  0  9G05G02G10G31G06G29G25G24G12
 127244225.961 7  24213768.528
 112397251.804 8  21388484.094
 127783808.550 6  24316475.900
 130526352.187 6  24838340.455
 126530237.824 7  24077909.405
 113331451.419 7  21566258.107
 109893916.205 8  20912118.489
 114639229.836 8  21815124.937
 108063641.051 8  20563820.080
 14 10 27  4 48  0.0000000  0  9G05G02G10G31G06G29G25G24G12
 127173286.219 7  24200269.218
 112439740.056 8  21396569.734
 127761151.805 6  24312164.058
 130431862.907 6  24820359.834
 126627016.134 6  24096325.324
 113282944.309 8  21557027.746
 109844514.780 8  20902718.175
 114728109.634 8  21832038.462
 108078548.063 8  20566656.811
 14 10 27  4 48 30.0000000  0  9G05G02G10G31G06G29G25G24G12
 127102445.987 7  24186788.779
 112482663.320 8  21404737.654
 127738954.599 6  24307941.311
 130337567.013 6  24802416.055
 126724015.785 6  24114783.783
 113234695.488 8  21547845.997
 109795316.913 8  20893355.961
 114817301.395 8  21849010.589
 108093745.185 8  20569548.809
 14 10 27  4 49  0.0000000  0  9G05G02G10G31G06G29G25G24G12
 127031711.070 7  24173329.499
 112526022.436 8  21412988.719
 127717221.264 6  24303806.709
 130243469.779 6  24784510.338
 126821236.640 6  24133285.073
 113186707.224 8  21538714.394
 109746326.725 8  20884033.659
 114906805.313 8  21866042.988
 108109235.854 8  20572496.459
 14 10 27  4 49 30.0000000  0  9G05G02G10G31G06G29G25G24G12
 126961085.541 7  24159889.172
 112569816.937 8  21421322.922
 127695954.888 6  24299759.776
 130149574.601 6  24766642.647
 126918677.280 6  24151827.054
 113138980.245 8  21529632.341
 109697547.008 8  20874751.395
 114996619.797 8  21883133.939
 108125022.080 8  20575500.818
 14 10 27  4 50  0.0000000  0  9G05G02G10G31G06G29G25G24G12
 126890573.339 7  24146471.049
 112614046.323 8  21429739.234
 127675158.300 6  24295802.532
 130055884.900 6  24748813.331
 127016336.046 6  24170412.114
 113091515.255 8  21520600.253
 109648980.365 8  20865509.342
 115086742.935 8  21900283.924
 108141105.904 8  20578561.341
 14 10 27  4 50 30.0000000  0  9G05G02G10G31G06G29G25G24G12
 126820172.915 7  24133074.252
 112658703.827 8  21438237.105
 127654828.118 6  24291933.258
 129962398.098 6  24731023.756
 127114205.305 6  24189036.294
 113044306.663 8  21511616.682
 109600623.415 8  20856307.474
 115177167.741 8  21917491.461
 108157482.826 8  20581677.625
 14 10 27  4 51  0.0000000  0  9G05G02G10G31G06G29G25G24G12
 126749892.672 7  24119701.411
 112703793.293 8  21446817.534
 127634971.621 6  24288154.257
 129869122.258 6  24713274.042
 127212287.645 6  24207700.618
 112997359.388 8  21502682.994
 109552483.070 8  20847146.804
 115267896.250 8  21934755.961
 108174158.977 8  20584851.279
 14 10 27  4 51 30.0000000  0  9G05G02G10G31G06G29G25G24G12
 126679729.994 7  24106349.575
 112749307.821 8  21455478.558
 127615585.502 6  24284465.770
 129776054.242 6  24695563.484
 127310575.168 6  24226403.755
 112950668.332 8  21493798.254
 109504555.605 8  20838026.738
 115358920.630 8  21952078.125
 108191129.879 8  20588080.333
 14 10 27  4 52  0.0000000  0  9G05G02G10G31G06G29G25G24G12
 126609691.408 7  24093021.896
 112795249.427 8  21464220.902
 127596675.217 6  24280868.610
 129683200.357 6  24677893.217
 127409068.884 6  24245147.397
 112904236.386 8  21484962.374
 109456846.334 8  20828947.703
 115450241.851 8  21969455.353
 108208400.314 8  20591367.143
 14 10 27  4 52 30.0000000  0  9G05G02G10G31G06G29G25G24G12
 126539777.652 6  24079716.678
 112841613.687 8  21473044.137
 127578239.904 6  24277359.229
 129590560.611 6  24660264.561
 127507763.706 6  24263928.348
 112858060.575 8  21476175.366
 109409354.462 8  20819910.373
 115541854.861 8  21986889.301
 108225968.582 8  20594710.457
 14 10 27  4 53  0.0000000  0  9G05G02G10G31G06G29G25G24G12
 126469993.024 6  24066437.389
 112888400.111 8  21481947.133
 127560282.393 6  24273943.769
 129498138.656 6  24642677.517
 127606658.112 6  24282746.741
 112812141.587 7  21467436.852
 109362082.670 8  20810914.750
 115633758.312 8  22004378.110
 108243836.540 8  20598110.683
 14 10 27  4 53 30.0000000  0  9G05G02G10G31G06G29G25G24G12
 126400343.021 6  24053183.794
 112935609.590 8  21490930.546
 127542806.559 6  24270616.113
 129405939.307 6  24625132.779
 127705751.815 6  24301605.192
 112766481.545 7  21458748.089
 109315034.967 8  20801961.811
 115725951.634 8  22021922.082
 108262007.312 8  20601568.388
 14 10 27  4 54  0.0000000  0  9G05G02G10G31G06G29G25G24G12
 126330828.146 7  24039955.776
 112983237.982 8  21499994.326
 127525811.897 6  24267379.645
 129313962.814 6  24607632.556
 127805039.932 6  24320497.488
 112721077.583 8  21450108.145
 109268210.778 8  20793051.747
 115818430.204 8  22039520.218
 108280479.526 8  20605083.518
 14 10 27  4 54 30.0000000  0  9G05G02G10G31G06G29G25G24G12
 126261450.387 7  24026752.958
 113031282.738 8  21509136.957
 127509299.087 6  24264239.769
 129222210.651 7  24590172.958
 127904518.843 6  24339428.284
 112675928.416 8  21441517.117
 109221610.675 9  20784184.009
 115911189.422 8  22057171.668
 108299253.201 8  20608656.292
 14 10 27  4 55  0.0000000  0  9G05G02G10G31G06G29G25G24G12
 126192211.984 7  24013577.029
 113079740.847 8  21518358.018
 127493268.871 6  24261188.365
 129130684.131 6  24572754.635
 128004184.872 6  24358394.827
 112631032.613 8  21432973.290
 109175235.287 9  20775359.096
 116004226.225 8  22074876.224
 108318327.924 8  20612286.185
 14 10 27  4 55 30.0000000  0  9G05G02G10G31G06G29G25G24G12
 126123119.465 6  24000429.081
 113128614.132 8  21527658.435
 127477726.297 6  24258233.037
 129039389.408 6  24555380.463
 128104038.994 6  24377395.978
 112586393.132 8  21424478.891
 109129089.856 8  20766577.725
 116097541.838 8  22092633.592
 108337707.883 8  20615973.908
 14 10 27  4 56  0.0000000  0  9G05G02G10G31G06G29G25G24G12
 126054176.536 6  23987310.717
 113177901.215 8  21537037.756
 127462673.310 6  24255366.829
 128948329.300 6  24538053.727
 128204078.921 6  24396433.302
 112542009.665 8  21416033.010
 109083176.345 9  20757840.764
 116191133.409 8  22110444.214
 108357394.417 8  20619720.225
 14 10 27  4 56 30.0000000  0  9G05G02G10G31G06G29G25G24G12
 125985387.025 6  23974220.800
 113227601.715 8  21546495.554
 127448112.771 6  24252597.455
 128857507.321 7  24520772.314
 128304303.215 6  24415506.023
 112497883.343 8  21407636.300
 109037497.594 8  20749148.296
 116284999.500 8  22128305.305
 108377389.388 8  20623525.298
 14 10 27  4 57  0.0000000  0  9G05G02G10G31G06G29G25G24G12
 125916751.331 6  23961159.171
 113277710.979 8  21556030.882
 127434043.186 6  24249920.622
 128766923.331 7  24503535.025
 128404706.491 6  24434612.957
 112454010.926 8  21399287.319
 108992052.520 8  20740500.481
 116379134.569 8  22146219.012
 108397690.794 8  20627388.593
 14 10 27  4 57 30.0000000  0  9G05G02G10G31G06G29G25G24G12
 125848271.529 6  23948127.874
 113328226.757 8  21565643.594
 127420465.917 6  24247335.829
 128676579.267 6  24486341.299
 128505285.661 6  24453751.524
 112410391.492 8  21390986.760
 108946842.326 9  20731897.192
 116473535.576 8  22164182.880
 108418299.175 8  20631310.221
 14 10 27  4 58  0.0000000  0  9G05G02G10G31G06G29G25G24G12
 125779960.180 6  23935127.921
 113379156.463 8  21575335.138
 127407391.717 6  24244847.879
 128586486.766 6  24469197.570
 128606047.312 6  24472926.032
 112367033.487 8  21382736.094
 108901877.778 9  20723340.876
 116568208.822 8  22182198.677
 108439224.237 8  20635291.915
 14 10 27  4 58 30.0000000  0  9G05G02G10G31G06G29G25G24G12
 125711819.105 6  23922161.815
 113430496.461 8  21585105.180
 127394820.643 6  24242457.186
 128496646.859 6  24452102.421
 128706987.018 6  24492133.207
 112323934.923 7  21374534.777
 108857158.851 8  20714831.049
 116663149.963 8  22200265.589
 108460465.129 8  20639334.123
 14 10 27  4 59  0.0000000  0  9G05G02G10G31G06G29G25G24G12
 125643849.014 6  23909226.804
 113482242.934 8  21594952.061
 127382751.823 6  24240159.827
 128407059.694 7  24435054.721
 128808100.354 6  24511376.634
 112281092.988 8  21366382.559
 108812685.345 8  20706368.357
 116758354.574 8  22218382.631
 108482020.759 8  20643436.139
 14 10 27  4 59 30.0000000  0  9G05G02G10G31G06G29G25G24G12
 125576046.708 7  23896325.521
 113534387.913 8  21604874.966
 127371180.545 6  24237958.436
 128317721.871 7  24418053.934
 128909378.744 6  24530650.268
 112238502.001 8  21358277.697
 108768452.944 8  20697951.004
 116853813.521 8  22236548.059
 108503885.789 8  20647596.811
 14 10 27  5  0  0.0000000  0  9G05G02G10G31G06G29G25G24G12
 125508417.419 7  23883456.337
 113586931.872 8  21614873.877
 127360110.264 6  24235851.390
 128228638.112 6  24401102.191
 129010821.643 6  24549953.647
 112196163.237 8  21350220.879
 108724465.319 8  20689580.389
 116949526.047 8  22254761.317
 108526062.873 8  20651817.019
 14 10 27  5  0 30.0000000  0  9G05G02G10G31G06G29G25G24G12
 125440965.702 6  23870619.912
 113639874.184 8  21624948.556
 127349543.413 6  24233840.626
 128139811.527 6  24384199.415
 129112427.478 6  24569289.075
 112154076.890 8  21342211.884
 108680725.202 9  20681257.057
 117045490.358 8  22273023.330
 108548554.000 8  20656097.136
 14 10 27  5  1  0.0000000  0  9G05G02G10G31G06G29G25G24G12
 125373691.839 6  23857817.899
 113693210.535 8  21635097.956
 127339479.239 6  24231926.118
 128051242.535 6  24367343.579
 129214191.232 6  24588654.744
 112112239.895 8  21334250.451
 108637231.892 9  20672980.365
 117141701.793 8  22291331.591
 108571357.347 8  20660436.552
 14 10 27  5  1 30.0000000  0  9G05G02G10G31G06G29G25G24G12
 125306600.323 7  23845051.411
 113746940.588 8  21645322.159
 127329920.766 6  24230106.174
 127962935.381 6  24350540.352
 129316112.200 6  24608048.832
 112070654.103 8  21326336.927
 108593988.865 8  20664751.547
 117238159.326 8  22309687.247
 108594475.626 8  20664835.863
 14 10 27  5  2  0.0000000  0  9G05G02G10G31G06G29G25G24G12
 125239696.230 7  23832320.325
 113801064.269 8  21655621.712
 127320871.226 6  24228383.290
 127874894.222 7  24333787.950
 129418189.651 6  24627475.302
 112029320.715 8  21318471.650
 108550999.647 8  20656571.234
 117334861.386 8  22328087.999
 108617911.344 8  20669295.281
 14 10 27  5  2 30.0000000  0  9G05G02G10G31G06G29G25G24G12
 125172980.245 6  23819624.657
 113855577.466 8  21665996.032
 127312329.470 6  24226759.346
 127787118.885 7  24317084.231
 129520418.389 6  24646926.819
 111988236.675 8  21310653.589
 108508263.358 9  20648438.574
 117431803.373 8  22346535.993
 108641662.519 8  20673814.986
 14 10 27  5  3  0.0000000  0  9G05G02G10G31G06G29G25G24G12
 125106449.017 6  23806962.444
 113910471.926 8  21676441.602
 127304290.618 6  24225228.768
 127699605.679 7  24300430.912
 129622789.693 6  24666410.047
 111947395.054 8  21302881.979
 108465775.505 8  20640353.424
 117528975.964 8  22365027.840
 108665723.664 8  20678393.648
 14 10 27  5  3 30.0000000  0  9G05G02G10G31G06G29G25G24G12
 125040112.337 6  23794339.949
 113965751.979 8  21686961.199
 127296762.018 6  24223795.608
 127612363.653 7  24283829.361
 129725307.448 6  24685917.635
 111906802.045 8  21295157.111
 108423544.233 8  20632317.159
 117626382.776 8  22383563.755
 108690102.101 8  20683033.057
 14 10 27  5  4  0.0000000  0  9G05G02G10G31G06G29G25G24G12
 124973976.423 6  23781754.231
 114021419.448 8  21697554.420
 127289748.233 6  24222461.472
 127525398.831 7  24267281.102
 129827972.461 6  24705454.282
 111866460.277 8  21287480.233
 108381574.646 9  20624330.596
 117724024.795 8  22402144.924
 108714801.964 8  20687733.273
 14 10 27  5  4 30.0000000  0  9G05G02G10G31G06G29G25G24G12
 124908043.990 6  23769208.207
 114077472.319 8  21708220.607
 127283250.730 6  24221224.271
 127438713.156 7  24250785.664
 129930782.173 6  24725018.913
 111826369.311 8  21279851.460
 108339868.393 9  20616394.251
 117821898.914 8  22420769.167
 108739824.023 8  20692494.658
 14 10 27  5  5  0.0000000  0  9G05G02G10G31G06G29G25G24G12
 124842311.055 6  23756699.090
 114133901.010 8  21718959.187
 127277263.237 6  24220087.297
 127352302.351 7  24234341.572
 130033726.662 6  24744609.837
 111786521.268 8  21272268.482
 108298419.791 9  20608506.550
 117919994.846 8  22439436.345
 108765161.094 8  20697316.199
 14 10 27  5  5 30.0000000  0  9G05G02G10G31G06G29G25G24G12
 124776779.030 6  23744228.562
 114190702.296 8  21729768.195
 127271785.496 6  24219043.048
 127266166.899 6  24217949.936
 130136801.763 6  24764223.931
 111746913.923 8  21264731.481
 108257228.977 8  20600668.335
 118018308.371 8  22458145.181
 108790812.498 8  20702197.549
 14 10 27  5  6  0.0000000  0  9G05G02G10G31G06G29G25G24G12
 124711463.215 7  23731800.127
 114247886.519 8  21740649.830
 127266831.120 6  24218099.909
 127180321.182 6  24201614.861
 130240017.202 6  24783865.200
 111707559.062 8  21257242.519
 108216309.914 8  20592882.058
 118116849.026 8  22476896.288
 108816791.181 8  20707141.025
 14 10 27  5  6 30.0000000  0  9G05G02G10G31G06G29G25G24G12
 124646366.359 7  23719412.281
 114305451.266 8  21751604.125
 127262400.812 6  24217257.012
 127094767.651 7  24185333.769
 130343370.260 6  24803532.507
 111668455.775 8  21249801.208
 108175664.071 8  20585147.237
 118215613.876 8  22495691.627
 108843097.717 8  20712146.971
 14 10 27  5  7  0.0000000  0  9G05G02G10G31G06G29G25G24G12
 124581477.745 7  23707064.978
 114363381.044 8  21762627.998
 127258482.014 5  24216511.030
 127009495.172 7  24169108.045
 130446844.907 6  24823222.780
 111629590.093 8  21242405.520
 108135279.625 8  20577462.454
 118314586.300 8  22514524.371
 108869719.199 8  20717212.891
 14 10 27  5  7 30.0000000  0  9G05G02G10G31G06G29G25G24G12
 124516806.616 7  23694758.201
 114421680.007 8  21773721.975
 127255081.940 5  24215864.990
 126924512.289 7  24152935.271
 130550444.588 6  24842938.351
 111590967.688 8  21235056.125
 108095164.332 8  20569828.764
 118413769.580 8  22533398.748
 108896662.024 8  20722340.149
 14 10 27  5  8  0.0000000  0  9G05G02G10G31G06G29G25G24G12
 124452361.116 7  23682494.932
 114480351.160 8  21784886.780
 127252206.551 6  24215318.607
 126839826.535 6  24136820.510
 130654171.909 6  24862676.004
 111552592.738 8  21227753.337
 108055324.931 9  20562247.856
 118513166.240 8  22552313.135
 108923932.064 8  20727529.582
 14 10 27  5  8 30.0000000  0  9G05G02G10G31G06G29G25G24G12
 124388140.663 7  23670272.718
 114539388.967 8  21796121.376
 127249853.306 6  24214871.488
 126755436.556 7  24120762.537
 130758020.761 6  24882439.538
 111514461.414 8  21220497.219
 108015759.567 9  20554718.849
 118612769.706 8  22571268.010
 108951526.444 8  20732780.900
 14 10 27  5  9  0.0000000  0  9G05G02G10G31G06G29G25G24G12
 124324151.768 7  23658096.610
 114598795.486 8  21807426.153
 127248027.020 5  24214519.287
 126671348.776 7  24104760.269
 130861992.475 6  24902224.880
 111476576.714 8  21213288.148
 107976473.792 9  20547242.816
 118712581.208 8  22590261.187
 108979449.500 8  20738094.486
 14 10 27  5  9 30.0000000  0  9G05G02G10G31G06G29G25G24G12
 124260395.981 6  23645963.437
 114658566.803 8  21818800.267
 127246727.019 6  24214276.251
 126587563.983 7  24088816.986
 130966082.919 6  24922031.173
 111438936.251 8  21206125.400
 107937467.671 9  20539820.076
 118812595.787 8  22609294.000
 109007700.317 8  20743470.289
 14 10 27  5 10  0.0000000  0  9G05G02G10G31G06G29G25G24G12
 124196880.625 6  23633878.196
 114718705.304 8  21830244.134
 127245958.792 5  24214127.786
 126504088.960 7  24072932.152
 131070294.022 6  24941862.230
 111401544.300 8  21199009.768
 107898747.282 9  20532451.859
 118912815.210 8  22628364.416
 109036283.748 8  20748909.539
 14 10 27  5 10 30.0000000  0  9G05G02G10G31G06G29G25G24G12
 124133601.349 7  23621836.728
 114779201.753 8  21841756.133
 127245715.688 5  24214084.224
 126420918.791 7  24057105.551
 131174615.913 6  24961716.065
 111364392.911 8  21191940.276
 107860307.019 9  20525136.992
 119013229.524 7  22647473.171
 109065193.270 8  20754411.153
 14 10 27  5 11  0.0000000  0  9G05G02G10G31G06G29G25G24G12
 124070555.704 7  23609839.083
 114840048.658 8  21853334.889
 127245993.344 5  24214136.591
 126338050.229 7  24041336.845
 131279040.742 6  24981587.378
 111327475.992 8  21184915.331
 107822143.181 9  20517874.646
 119113830.522 7  22666616.743
 109094424.103 8  20759973.675
 14 10 27  5 11 30.0000000  0  9G05G02G10G31G06G29G25G24G12
 124007750.896 7  23597886.517
 114901247.936 8  21864981.065
 127246796.783 5  24214287.510
 126255489.751 7  24025625.749
 131383570.003 6  25001478.464
 111290796.747 8  21177935.342
 107784261.496 9  20510665.792
 119214619.261 7  22685796.294
 109123980.757 8  20765597.894
 14 10 27  5 12  0.0000000  0  9G05G02G10G31G06G29G25G24G12
 123945188.737 7  23585981.966
 114962796.653 8  21876693.360
 127248125.735 6  24214541.323
 126173239.108 7  24009973.438
 131488200.426 6  25021387.875
 111254353.609 8  21171000.349
 107746662.841 8  20503511.616
 119315592.340 7  22705010.798
 109153862.941 8  20771284.050
 14 10 27  5 12 30.0000000  0  9G05G02G10G31G06G29G25G24G12
 123882875.596 7  23574123.983
 115024695.866 8  21888472.722
 127249984.137 5  24214893.732
 126091303.612 7  23994382.101
 131592932.500 6  25041319.664
 111218149.631 7  21164111.247
 107709351.928 8  20496411.437
 119416749.551 7  22724260.377
 109184073.796 8  20777033.641
 14 10 27  5 13  0.0000000  0  9G05G02G10G31G06G29G25G24G12
 123820811.743 7  23562313.866
 115086940.790 8  21900317.502
 127252370.231 5  24215349.599
 126009682.873 7  23978849.342
 131697761.054 6  25061267.015
 111182181.319 7  21157266.605
 107672327.750 8  20489365.972
 119518085.687 7  22743544.107
 109214611.619 8  20782844.793
 14 10 27  5 13 30.0000000  0  9G05G02G10G31G06G29G25G24G12
 123759007.044 7  23550552.242
 115149537.084 8  21912228.864
 127255292.493 6  24215906.619
 125928386.971 7  23963380.188
 131802691.316 6  25081234.970
 111146455.448 8  21150467.709
 107635599.691 8  20482376.664
 119619605.294 7  22762863.343
 109245484.580 8  20788719.389
 14 10 27  5 14  0.0000000  0  9G05G02G10G31G06G29G25G24G12
 123697464.311 7  23538840.294
 115212482.017 8  21924207.482
 127258750.902 5  24216562.466
 125847417.525 7  23947971.136
 131907720.185 6  25101221.690
 111110970.730 7  21143715.877
 107599168.797 8  20475444.207
 119721304.723 7  22782215.948
 109276692.449 8  20794658.155
 14 10 27  5 14 30.0000000  0  9G05G02G10G31G06G29G25G24G12
 123636180.969 7  23527179.820
 115275767.666 8  21936250.018
 127262740.400 6  24217322.846
 125766771.050 7  23932625.264
 132012839.567 6  25121225.422
 111075721.016 8  21137008.148
 107563031.105 8  20468567.320
 119823175.984 7  22801601.264
 109308230.226 8  20800659.530
 14 10 27  5 15  0.0000000  0 10G05G02G10G31G06G29G21G25G24G12
 123575152.497 7  23515566.330
 115339384.861 8  21948355.889
 127267254.243 6  24218181.740
 125686442.958 7  23917338.941
 132118039.571 6  25141245.691
 111040698.364 8  21130343.045
 129546486.429 5  24651873.413
 107527180.927 9  20461745.464
 119925208.827 7  22821017.915
 109340091.081 8  20806722.815
 14 10 27  5 15 30.0000000  0 10G05G02G10G31G06G29G21G25G24G12
 123514399.519 7  23504005.549
 115403348.828 8  21960528.127
 127272310.723 6  24219144.497
 125606452.749 7  23902117.622
 132223335.415 6  25161279.895
 111005919.836 8  21123725.165
 129448698.637 5  24633267.245
 107491637.495 9  20454981.455
 120027417.288 7  22840467.666
 109372293.106 8  20812850.597
 14 10 27  5 16  0.0000000  0 10G05G02G10G31G06G29G21G25G24G12
 123453922.726 7  23492496.815
 115467655.849 8  21972765.422
 127277908.774 6  24220209.008
 125526801.233 7  23886960.631
 132328722.711 6  25181336.020
 110971382.650 8  21117152.798
 129351022.240 6  24614680.160
 107456400.729 9  20448276.405
 120129797.533 7  22859949.761
 109404834.714 8  20819043.303
 14 10 27  5 16 30.0000000  0 10G05G02G10G31G06G29G21G25G24G12
 123393725.580 7  23481041.681
 115532303.996 8  21985067.869
 127284049.098 6  24221377.767
 125447490.845 7  23871869.051
 132434199.377 6  25201409.828
 110937086.666 8  21110626.755
 129253459.061 6  24596115.114
 107421472.543 9  20441629.921
 120232346.492 7  22879463.845
 109437716.701 8  20825300.416
 14 10 27  5 17  0.0000000  0 10G05G02G10G31G06G29G21G25G24G12
 123333809.430 7  23469639.705
 115597289.561 8  21997433.765
 127290731.175 6  24222649.788
 125368522.554 7  23856841.413
 132539761.711 6  25221497.346
 110903029.840 8  21104146.174
 129156009.576 6  24577569.648
 107386853.280 9  20435041.900
 120335060.229 7  22899010.765
 109470938.426 8  20831622.278
 14 10 27  5 17 30.0000000  0 10G05G02G10G31G06G29G21G25G24G12
 123274172.835 7  23458290.386
 115662606.030 8  22009863.586
 127297951.156 6  24224023.711
 125289894.086 7  23841878.833
 132645402.805 6  25241600.043
 110869207.177 8  21097709.352
 129058671.302 6  24559047.406
 107352540.326 9  20428512.369
 120437931.270 7  22918585.597
 109504495.607 8  20838008.405
 14 10 27  5 18  0.0000000  0 10G05G02G10G31G06G29G21G25G24G12
 123214819.398 7  23446996.359
 115728252.168 8  22022355.076
 127305709.988 6  24225500.273
 125211608.253 7  23826981.642
 132751120.933 6  25261717.075
 110835618.343 8  21091317.796
 128961446.046 6  24540545.423
 107318535.772 9  20422041.686
 120540957.724 7  22938191.727
 109538389.413 9  20844458.012
 14 10 27  5 18 30.0000000  0 10G05G02G10G31G06G29G21G25G24G12
 123155756.667 7  23435756.946
 115794230.250 8  22034910.506
 127314012.943 6  24227080.089
 125133672.349 7  23812150.960
 132856918.377 6  25281849.216
 110802267.721 8  21084971.824
 128864341.163 6  24522065.756
 107284846.104 9  20415630.709
 120644140.866 7  22957826.804
 109572625.298 8  20850972.871
 14 10 27  5 19  0.0000000  0 10G05G02G10G31G06G29G21G25G24G12
 123096986.763 7  23424574.396
 115860537.805 8  22047528.582
 127322859.938 6  24228763.509
 125056088.110 7  23797387.447
 132962792.087 5  25301998.647
 110769154.011 8  21078670.260
 128767357.721 6  24503612.059
 107251472.394 9  20409280.037
 120747477.588 7  22977490.669
 109607202.584 8  20857552.819
 14 10 27  5 19 30.0000000  0 10G05G02G10G31G06G29G21G25G24G12
 123038510.018 7  23413445.555
 115927170.022 8  22060208.359
 127332248.721 6  24230550.760
 124978854.951 7  23782690.882
 133068737.162 6  25322159.997
 110736273.713 8  21072413.835
 128670494.882 6  24485178.427
 107218413.711 8  20402988.942
 120850962.027 7  22997183.701
 109642119.389 8  20864197.168
 14 10 27  5 20  0.0000000  0 10G05G02G10G31G06G29G21G25G24G12
 122980331.573 7  23402375.700
 115994126.914 8  22072949.729
 127342181.770 6  24232440.040
 124901977.850 7  23768060.787
 133174753.542 6  25342331.727
 110703628.680 8  21066201.181
 128573756.557 6  24466770.653
 107185674.000 8  20396758.649
 120954594.107 7  23016904.472
 109677378.669 8  20870906.736
 14 10 27  5 20 30.0000000  0 10G05G02G10G31G06G29G21G25G24G12
 122922458.137 7  23391363.051
 116061409.945 8  22085753.089
 127352663.505 6  24234435.598
 124825462.315 7  23753499.995
 133280842.484 6  25362523.010
 110671221.935 8  21060034.107
 128477148.266 6  24448387.693
 107153258.674 8  20390590.426
 121058374.421 7  23036653.169
 109712983.861 8  20877682.298
 14 10 27  5 21  0.0000000  0 10G05G02G10G31G06G29G21G25G24G12
 122864886.170 7  23380407.688
 116129010.874 8  22098617.190
 127363687.967 6  24236533.312
 124749304.509 7  23739008.986
 133386995.683 6  25382721.690
 110639046.402 8  21053911.798
 128380665.781 6  24430027.160
 107121163.113 8  20384482.707
 121162294.102 7  23056428.722
 109748929.327 8  20884522.545
 14 10 27  5 21 30.0000000  0 10G05G02G10G31G06G29G21G25G24G12
 122807617.924 7  23369509.334
 116196927.303 8  22111541.667
 127375254.975 6  24238733.273
 124673506.088 7  23724583.764
 133493210.210 6  25402933.739
 110607101.345 8  21047832.871
 128284310.717 6  24411690.846
 107089388.681 8  20378436.508
 121266349.386 7  23076228.889
 109785215.386 8  20891427.726
 14 10 27  5 22  0.0000000  0 10G05G02G10G31G06G29G21G25G24G12
 122750659.449 7  23358669.516
 116265159.256 8  22124525.752
 127387367.553 6  24241039.096
 124598071.744 7  23710229.922
 133599486.526 6  25423158.100
 110575388.283 8  21041798.134
 128188087.222 6  24393379.524
 107057939.459 8  20372451.867
 121370540.328 7  23096057.381
 109821844.660 8  20898397.846
 14 10 27  5 22 30.0000000  0 10G05G02G10G31G06G29G21G25G24G12
 122694011.859 7  23347890.672
 116333703.310 8  22137569.293
 127400024.623 6  24243448.061
 124523002.653 7  23695944.341
 133705821.054 6  25443392.890
 110543905.413 8  21035807.081
 128091995.384 6  24375094.153
 107026815.777 9  20366529.336
 121474862.728 7  23115908.103
 109858816.317 8  20905433.486
 14 10 27  5 23  0.0000000  0 10G05G02G10G31G06G29G21G25G24G12
 122637674.363 7  23337170.038
 116402554.135 8  22150670.995
 127413223.269 6  24245960.284
 124448297.696 7  23681728.254
 133812208.169 5  25463636.790
 110512648.889 8  21029859.072
 127996033.981 6  24356832.137
 106996016.121 9  20360668.418
 121579310.366 7  23135785.022
 109896127.339 8  20912533.335
 14 10 27  5 23 30.0000000  0 10G05G02G10G31G06G29G21G25G24G12
 122581649.965 7  23326508.562
 116471709.403 8  22163831.107
 127426963.682 6  24248573.929
 124373959.108 7  23667582.440
 133918645.624 5  25483891.124
 110481617.880 8  21023954.230
 127900205.298 6  24338597.852
 106965542.101 9  20354869.050
 121683880.721 7  23155683.003
 109933778.014 8  20919698.054
 14 10 27  5 24  0.0000000  0 10G05G02G10G31G06G29G21G25G24G12
 122525940.612 7  23315907.128
 116541165.613 8  22177048.256
 127441245.029 6  24251292.768
 124299987.978 7  23653505.861
 134025130.117 5  25504154.826
 110450810.391 8  21018091.864
 127804509.481 6  24320386.870
 106935394.339 9  20349132.126
 121788569.423 7  23175606.636
 109971767.673 8  20926927.368
 14 10 27  5 24 30.0000000  0 10G05G02G10G31G06G29G21G25G24G12
 122470548.208 7  23305367.489
 116610920.547 8  22190322.614
 127456067.111 6  24254113.607
 124226385.630 7  23639500.035
 134131658.858 6  25524426.585
 110420225.217 8  21012271.841
 127708947.805 6  24302202.683
 106905573.828 8  20343457.513
 121893373.070 7  23195548.578
 110010095.915 8  20934221.012
 14 10 27  5 25  0.0000000  0 10G05G02G10G31G06G29G21G25G24G12
 122415478.836 7  23294888.301
 116680975.165 8  22203653.769
 127471433.118 6  24257036.856
 124153157.785 7  23625564.814
 134238232.614 5  25544708.499
 110389865.339 8  21006494.930
 127613525.241 6  24284043.959
 106876085.423 9  20337846.183
 121998292.136 7  23215514.178
 110048766.490 8  20941579.703
 14 10 27  5 25 30.0000000  0 10G05G02G10G31G06G29G21G25G24G12
 122360734.097 7  23284469.375
 116751325.776 8  22217040.262
 127487341.891 6  24260064.029
 124080305.481 7  23611701.666
 134344848.222 5  25564996.594
 110359728.741 8  21000759.646
 127518242.477 6  24265911.707
 106846929.682 8  20332298.142
 122103322.740 7  23235501.049
 110087778.470 8  20949003.414
 14 10 27  5 26  0.0000000  0 10G05G02G10G31G06G29G21G25G24G12
 122306325.893 7  23274116.509
 116821978.950 8  22230485.861
 127503802.264 6  24263194.809
 124007839.455 7  23597911.996
 134451512.574 5  25585294.303
 110329823.525 8  20995068.816
 127423110.075 6  24247809.247
 106818116.992 8  20326815.229
 122208470.939 7  23255509.480
 110127141.085 8  20956493.777
 14 10 27  5 26 30.0000000  0 10G05G02G10G31G06G29G21G25G24G12
 122252242.937 7  23263824.208
 116892918.923 8  22243984.845
 127520800.661 6  24266430.502
 123935748.474 7  23584193.707
 134558210.134 5  25605598.002
 110300135.179 8  20989419.286
 127328116.329 6  24229732.103
 106789635.317 8  20321395.180
 122313719.418 7  23275538.781
 110166840.747 8  20964048.940
 14 10 27  5 27  0.0000000  0  9G05G02G10G31G29G21G25G24G12
 122198485.072 7  23253595.273
 116964140.258 8  22257537.914
 127538334.257 6  24269766.769
 123864031.592 7  23570546.862
 110270660.187 7  20983810.634
 127233259.513 6  24211680.750
 106761483.316 8  20316038.036
 122419063.171 7  23295585.814
 110206874.797 9  20971667.233
 14 10 27  5 27 30.0000000  0  9G05G02G10G31G29G21G25G24G12
 122145066.959 7  23243429.137
 117035653.090 8  22271146.224
 127556415.126 6  24273207.658
 123792702.513 7  23556972.945
 110241409.679 7  20978244.570
 127138553.693 6  24193658.809
 106733674.562 8  20310746.626
 122524510.766 7  23315651.129
 110247255.871 8  20979351.470
 14 10 27  5 28  0.0000000  0  9G05G02G10G31G29G21G25G24G12
 122091981.168 7  23233328.144
 117107445.212 8  22284808.570
 127575033.114 6  24276751.383
 123721753.620 7  23543471.957
 110212372.969 8  20972719.226
 127043990.377 6  24175664.354
 106706200.635 9  20305518.169
 122630049.724 7  23335735.870
 110287973.215 8  20987099.515
 14 10 27  5 28 30.0000000  0  9G05G02G10G31G29G21G25G24G12
 122039247.341 7  23223293.303
 117179531.206 8  22298525.882
 127594205.203 6  24280399.193
 123651203.844 7  23530047.041
 110183566.265 8  20967237.153
 126949588.397 6  24157702.452
 106679080.042 9  20300357.404
 122735694.119 7  23355837.627
 110329044.315 8  20994914.975
 14 10 27  5 29  0.0000000  0  9G05G02G10G31G29G21G25G24G12
 121986853.788 7  23213322.934
 117251894.430 8  22312296.286
 127613917.007 6  24284151.985
 123581040.784 7  23516695.670
 110154974.476 8  20961795.954
 126855335.010 6  24139765.040
 106652300.032 9  20295261.333
 122841426.405 7  23375959.191
 110370455.214 8  21002795.448
 14 10 27  5 29 30.0000000  0  9G05G02G10G31G29G21G25G24G12
 121934801.695 7  23203416.560
 117324531.063 8  22326118.343
 127634166.742 6  24288002.615
 123511265.367 7  23503417.007
 110126595.291 8  20956396.086
 126761230.402 6  24121856.710
 106625860.640 9  20290230.095
 122947242.289 7  23396094.238
 110412204.549 8  21010740.027
 14 10 27  5 30  0.0000000  0  9G05G02G10G31G29G21G25G24G12
 121883094.876 7  23193577.934
 117397439.785 8  22339992.606
 127654955.378 6  24291962.182
 123441880.329 7  23490214.190
 110098429.037 8  20951036.357
 126667277.368 6  24103978.419
 106599764.451 9  20285264.180
 123053139.724 7  23416247.104
 110454293.706 8  21018749.414
 14 10 27  5 30 30.0000000  0  9G05G02G10G31G29G21G25G24G12
 121831728.859 7  23183803.407
 117470611.677 7  22353916.505
 127676276.007 6  24296017.835
 123372880.837 7  23477083.521
 110070468.313 8  20945715.320
 126573470.587 6  24086128.028
 106574006.168 9  20280362.564
 123159109.540 7  23436412.068
 110496715.457 8  21026822.347
 14 10 27  5 31  0.0000000  0  9G05G02G10G31G29G21G25G24G12
 121780712.714 7  23174095.167
 117544050.803 7  22367891.542
 127698134.832 6  24300176.615
 123304275.338 7  23464027.963
 110042718.521 8  20940434.480
 126479818.273 6  24068305.520
 106548593.888 8  20275526.812
 123265154.645 7  23456592.786
 110539476.773 8  21034959.226
 14 10 27  5 31 30.0000000  0  9G05G02G10G31G29G21G25G24G12
 121730048.931 7  23164454.328
 117617754.701 7  22381917.201
 127720531.538 6  24304439.322
 123236065.659 7  23451048.229
 110015179.147 8  20935194.152
 126386321.797 6  24050513.997
 106523528.833 8  20270757.113
 123371272.649 7  23476786.298
 110582577.571 8  21043161.061
 14 10 27  5 32  0.0000000  0  9G05G02G10G31G29G21G25G24G12
 121679738.725 7  23154879.703
 117691719.984 8  22395992.007
 127743464.529 6  24308803.680
 123168252.410 7  23438143.230
 109987847.814 8  20929993.332
 126292981.361 6  24032752.369
 106498811.266 8  20266053.237
 123477458.699 7  23496991.695
 110626016.624 9  21051427.361
 14 10 27  5 32 30.0000000  0  9G05G02G10G31G29G21G25G24G12
 121629789.755 7  23145374.813
 117765948.875 7  22410117.251
 127766938.480 6  24313271.778
 123100842.946 7  23425315.824
 109960728.742 8  20924832.830
 126199803.846 6  24015021.052
 106474447.896 9  20261417.136
 123583715.341 6  23517212.007
 110669799.036 8  21059759.018
 14 10 27  5 33  0.0000000  0  9G05G02G10G31G29G21G25G24G12
 121580206.509 7  23135939.658
 117840441.330 7  22424292.944
 127790954.763 6  24317841.811
 123033840.925 7  23412566.297
 109933823.324 8  20919712.776
 126106792.592 6  23997320.695
 106450441.874 9  20256849.250
 123690041.266 6  23537444.604
 110713926.627 8  21068156.153
 14 10 27  5 33 30.0000000  0  9G05G02G10G31G29G21G25G24G12
 121530984.733 7  23126573.514
 117915187.880 8  22438516.943
 127815506.446 6  24322514.004
 122967241.148 7  23399894.097
 109907123.838 8  20914631.926
 126013942.335 6  23979651.415
 106426787.937 8  20252347.833
 123796426.891 7  23557689.815
 110758392.776 8  21076617.983
 14 10 27  5 34  0.0000000  0  9G05G02G10G31G29G21G25G24G12
 121482131.706 7  23117276.940
 117990191.667 7  22452790.481
 127840597.987 6  24327287.410
 122901050.828 7  23387297.042
 109880634.650 8  20909591.588
 125921260.064 6  23962015.267
 106403492.750 8  20247915.055
 123902874.423 6  23577946.841
 110803202.491 8  21085144.987
 14 10 27  5 34 30.0000000  0  9G05G02G10G31G29G21G25G24G12
 121433648.754 7  23108051.205
 118065449.194 7  22467110.996
 127866228.008 6  24332163.585
 122835270.451 7  23374779.208
 109854353.543 8  20904590.122
 125828745.998 7  23944411.413
 106380556.625 9  20243550.302
 124009379.818 7  23598213.966
 110848354.875 8  21093737.080
 14 10 27  5 35  0.0000000  0  9G05G02G10G31G29G21G25G24G12
 121385537.463 7  23098895.261
 118140956.880 8  22481479.707
 127892394.924 5  24337141.609
 122769900.942 7  23362340.575
 109828278.917 8  20899628.136
 125736399.716 6  23926837.003
 106357979.707 8  20239254.094
 124115938.969 7  23618491.907
 110893848.481 8  21102394.218
 14 10 27  5 35 30.0000000  0  9G05G02G10G31G29G21G25G24G12
 121337805.562 7  23089812.662
 118216717.892 7  22495897.037
 127919103.524 6  24342224.310
 122704949.683 7  23349980.653
 109802415.188 8  20894706.806
 125644229.140 6  23909297.509
 106335768.856 8  20235027.395
 124222554.016 6  23638779.791
 110939688.684 8  21111117.588
 14 10 27  5 36  0.0000000  0  9G05G02G10G31G29G21G25G24G12
 121290451.684 7  23080801.015
 118292725.731 7  22510360.234
 127946349.621 6  24347410.698
 122640414.455 7  23337699.811
 109776757.390 8  20889823.937
 125552231.819 6  23891790.642
 106313921.763 9  20230870.370
 124329218.926 6  23659077.452
 110985871.606 8  21119905.696
 14 10 27  5 36 30.0000000  0  9G05G02G10G31G29G21G25G24G12
 121243473.154 7  23071861.950
 118368973.330 7  22524870.233
 127974127.935 6  24352698.214
 122576292.205 7  23325498.005
 109751299.997 8  20884980.064
 125460404.378 6  23874317.290
 106292434.970 8  20226781.206
 124435925.182 6  23679382.594
 111032392.463 8  21128758.299
 14 10 27  5 37  0.0000000  0  9G05G02G10G31G29G21G25G24G12
 121196873.310 7  23062994.083
 118445459.128 7  22539424.746
 128002438.387 6  24358085.152
 122512585.518 7  23313375.264
 109726043.536 8  20880173.525
 125368749.018 6  23856874.440
 106271310.731 9  20222761.617
 124542671.218 6  23699696.874
 111079251.900 8  21137675.538
 14 10 27  5 37 30.0000000  0  9G05G02G10G31G29G21G25G24G12
 121150657.491 7  23054199.447
 118522183.686 7  22554025.070
 128031283.417 6  24363573.998
 122449298.887 7  23301331.915
 109700989.687 8  20875405.863
 125277270.274 6  23839468.022
 106250553.277 8  20218811.434
 124649456.836 6  23720016.103
 111126452.993 8  21146657.569
 14 10 27  5 38  0.0000000  0  9G05G02G10G31G29G21G25G24G12
 121104829.659 7  23045478.889
 118599146.255 7  22568670.725
 128060664.167 6  24369164.433
 122386435.848 7  23289369.782
 109676139.430 8  20870677.165
 125185971.433 6  23822095.137
 106230165.644 9  20214932.017
 124756280.622 6  23740345.022
 111173997.382 8  21155705.245
 14 10 27  5 38 30.0000000  0  9G05G02G10G31G29G21G25G24G12
 121059395.506 7  23036832.948
 118676347.931 7  22583361.375
 128090582.965 6  24374859.116
 122324001.343 7  23277488.994
 109651494.845 9  20865987.713
 125094856.832 6  23804755.751
 106210152.356 9  20211123.319
 124863142.823 6  23760680.162
 111221887.206 8  21164818.424
 14 10 27  5 39  0.0000000  0  9G05G02G10G31G29G21G25G24G12
 121014358.261 7  23028262.510
 118753787.121 7  22598098.384
 128121040.260 6  24380654.699
 122261998.307 7  23265689.572
 109627056.406 8  20861337.088
 125003929.126 6  23787453.159
 106190516.045 9  20207386.936
 124970041.809 6  23781022.857
 111270124.033 8  21173997.849
 14 10 27  5 39 30.0000000  0  9G05G02G10G31G29G21G25G24G12
 120969713.534 7  23019766.711
 118831454.462 7  22612877.907
 128152028.504 6  24386550.114
 122200421.776 7  23253972.429
 109602816.370 8  20856724.279
 124913183.097 6  23770184.302
 106171251.177 9  20203720.904
 125076967.713 6  23801370.680
 111318700.983 8  21183241.528
 14 10 27  5 40  0.0000000  0  9G05G02G10G31G29G21G25G24G12
 120925473.502 7  23011348.106
 118909357.837 7  22627702.096
 128183556.744 6  24392550.685
 122139283.150 7  23242337.958
 109578783.995 8  20852150.960
 124822629.696 6  23752952.600
 106152368.888 9  20200127.879
 125183927.386 6  23821724.036
 111367628.094 8  21192552.450
 14 10 27  5 40 30.0000000  0  9G05G02G10G31G29G21G25G24G12
 120881634.470 7  23003005.945
 118987488.729 7  22642570.278
 128215618.461 6  24398652.156
 122078578.133 7  23230786.063
 109554952.429 8  20847615.792
 124732264.681 6  23735756.305
 106133864.778 9  20196606.625
 125290911.876 6  23842083.031
 111416899.042 8  21201927.966
 14 10 27  5 41  0.0000000  0  9G05G02G10G31G29G21G25G24G12
 120838195.902 7  22994739.260
 119065841.976 7  22657480.375
 128248210.082 6  24404854.564
 122018305.509 7  23219316.894
 109531317.860 9  20843118.984
 124642087.108 6  23718596.809
 106115737.311 9  20193156.897
 125397915.763 6  23862445.259
 111466510.570 8  21211368.990
 14 10 27  5 41 30.0000000  0  9G05G02G10G31G29G21G25G24G12
 120795168.151 7  22986551.602
 119144423.789 7  22672434.345
 128281338.948 6  24411158.541
 121958474.999 7  23207931.537
 109507887.717 8  20838660.271
 124552105.894 6  23701474.754
 106097995.989 9  20189781.029
 125504944.291 6  23882812.469
 111516470.892 8  21220876.188
 14 10 27  5 42  0.0000000  0  9G05G02G10G31G29G21G25G24G12
 120752546.538 7  22978440.410
 119223224.563 7  22687429.546
 128314997.125 6  24417562.792
 121899081.547 7  23196629.712
 109484654.118 8  20834238.625
 124462315.658 6  23684386.752
 106080635.028 9  20186477.421
 125611987.621 6  23903181.011
 111566772.683 8  21230448.310
 14 10 27  5 42 30.0000000  0  9G05G02G10G31G29G21G25G24G12
 120710334.792 7  22970408.637
 119302243.325 7  22702466.984
 128349185.486 6  24424068.589
 121840128.274 7  23185410.772
 109461617.907 8  20829855.292
 124372719.424 6  23667337.161
 106063657.630 9  20183246.799
 125719044.501 6  23923554.745
 111617417.388 8  21240086.121
 14 10 27  5 43  0.0000000  0  9G05G02G10G31G29G21G25G24G12
 120668539.965 7  22962454.789
 119381482.831 7  22717545.147
 128383907.581 6  24430675.592
 121781621.557 7  23174276.572
 109438783.411 8  20825509.906
 124283323.410 6  23650325.119
 106047069.590 9  20180090.078
 125826116.553 6  23943930.224
 111668409.590 8  21249789.134
 14 10 27  5 43 30.0000000  0  9G05G02G10G31G29G21G25G24G12
 120627159.874 7  22954580.988
 119460935.706 7  22732664.897
 128419158.659 6  24437383.449
 121723558.768 7  23163228.041
 109416145.301 8  20821202.046
 124194124.837 7  23633351.651
 106030868.009 9  20177007.010
 125933196.573 6  23964305.167
 111719744.797 8  21259557.841
 14 10 27  5 44  0.0000000  0  9G05G02G10G31G29G21G25G24G12
 120586197.616 7  22946785.912
 119540601.219 7  22747824.572
 128454938.489 6  24444192.282
 121665942.126 7  23152263.623
 109393703.177 9  20816931.442
 124105125.758 7  23616416.700
 106015054.898 9  20173997.893
 126040282.444 6  23984684.301
 111771423.481 8  21269392.162
 14 10 27  5 44 30.0000000  0  9G05G02G10G31G29G21G25G24G12
 120545654.835 7  22939070.337
 119620476.131 7  22763024.624
 128491245.835 6  24451103.256
 121608772.985 7  23141385.042
 109371456.075 8  20812697.944
 124016327.299 7  23599518.138
 105999631.241 9  20171062.790
 126147371.131 6  24005062.916
 111823445.151 8  21279291.369
 14 10 27  5 45  0.0000000  0  9G05G02G10G31G29G21G25G24G12
 120505530.835 7  22931435.014
 119700555.249 7  22778262.814
 128528076.490 6  24458111.243
 121552049.494 7  23130591.676
 109349399.978 8  20808500.815
 123927727.552 7  23582658.412
 105984595.303 9  20168201.685
 126254456.442 6  24025441.681
 111875806.220 8  21289255.601
 14 10 27  5 45 30.0000000  0  9G05G02G10G31G29G21G25G24G12
 120465828.657 7  22923880.130
 119780837.012 7  22793540.351
 128565430.353 6  24465218.539
 121495774.598 7  23119882.623
 109327535.286 8  20804339.968
 123839329.251 7  23565836.350
 105969949.461 9  20165414.537
 126361536.862 6  24045817.613
 111928507.555 8  21299284.646
 14 10 27  5 46  0.0000000  0  9G05G02G10G31G29G21G25G24G12
 120426560.564 7  22916407.693
 119861329.794 7  22808857.775
 128603317.029 6  24472428.420
 121439960.233 7  23109261.415
 109305871.884 8  20800217.523
 123751143.976 7  23549055.606
 105955705.284 9  20162704.066
 126468619.864 6  24066195.193
 111981559.730 8  21309380.030
 14 10 27  5 46 30.0000000  0  9G05G02G10G31G29G21G25G24G12
 120387725.752 7  22909017.627
 119942027.573 7  22824213.856
 128641731.993 6  24479737.132
 121384604.393 7  23098727.486
 109284404.909 8  20796132.787
 123663169.561 7  23532314.757
 105941860.574 9  20160069.484
 126575699.077 6  24086571.920
 112034958.320 8  21319541.002
 14 10 27  5 47  0.0000000  0  9G05G02G10G31G29G21G25G24G12
 120349325.127 7  22901710.273
 120022927.197 7  22839608.181
 128680673.264 6  24487148.783
 121329707.526 7  23088280.819
 109263133.256 8  20792084.865
 123575405.956 7  23515614.016
 105928415.590 9  20157511.158
 126682770.580 6  24106947.000
 112088702.094 8  21329768.724
 14 10 27  5 47 30.0000000  0  9G05G02G10G31G29G21G25G24G12
 120311356.516 7  22894485.410
 120104022.065 7  22855040.890
 128720135.573 6  24494658.660
 121275267.170 7  23077921.874
 109242051.876 8  20788072.974
 123487851.354 7  23498952.400
 105915367.603 9  20155028.188
 126789827.521 6  24127320.317
 112142787.239 8  21340060.495
 14 10 27  5 48  0.0000000  0  9G05G02G10G31G29G21G25G24G12
 120273829.658 7  22887343.806
 120185317.418 7  22870510.740
 128760125.234 6  24502266.700
 121221292.196 7  23067649.687
 109221167.247 9  20784099.253
 123400514.243 7  23482332.806
 105902725.443 9  20152622.434
 126896874.882 6  24147690.111
 112197220.768 8  21350419.324
 14 10 27  5 48 30.0000000  0  9G05G02G10G31G29G21G25G24G12
 120236744.536 7  22880286.866
 120266808.740 7  22886018.241
 128800638.956 6  24509978.551
 121167782.111 7  23057467.779
 109200476.431 8  20780161.527
 123313393.716 7  23465754.308
 105890488.010 9  20150293.842
 127003907.381 6  24168055.712
 112251999.957 8  21360843.201
 14 10 27  5 49  0.0000000  0  9G05G02G10G31G29G21G25G24G12
 120200098.938 7  22873313.592
 120348489.826 7  22901561.655
 128841671.603 6  24517785.954
 121114733.861 7  23047372.538
 109179974.392 8  20776260.072
 123226486.714 7  23449216.546
 105878652.294 9  20148041.413
 127110917.563 6  24188420.994
 112307120.240 8  21371332.125
 14 10 27  5 49 30.0000000  0  9G05G02G10G31G29G21G25G24G12
 120163898.756 7  22866424.662
 120430361.969 7  22917142.237
 128883226.128 6  24525695.005
 121062152.484 7  23037367.088
 109159664.442 8  20772395.557
 123139798.815 7  23432719.947
 105867223.564 9  20145866.765
 127217907.052 6  24208779.854
 112362585.173 8  21381887.027
 14 10 27  5 50  0.0000000  0  9G05G02G10G31G29G21G25G24G12
 120128143.955 7  22859621.173
 120512420.987 7  22932757.398
 128925299.235 6  24533698.533
 121010037.878 7  23027449.404
 109139543.982 8  20768566.590
 123053329.284 7  23416265.209
 105856201.008 9  20143769.216
 127324871.081 6  24229135.651
 112418392.538 8  21392506.595
 14 10 27  5 50 30.0000000  0  9G05G02G10G31G29G21G25G24G12
 120092842.202 7  22852903.594
 120594670.105 7  22948408.706
 128967895.113 6  24541805.629
 120958397.088 7  23017623.267
 109119617.175 8  20764774.739
 122967084.947 7  23399853.976
 105845591.301 9  20141750.361
 127431812.478 6  24249485.765
 112474547.440 8  21403192.838
 14 10 27  5 51  0.0000000  0  9G05G02G10G31G29G21G25G24G12
 120057986.671 7  22846270.425
 120677098.205 7  22964093.984
 129011003.797 6  24550008.160
 120907222.892 7  23007884.826
 109099875.440 8  20761017.824
 122881058.519 7  23383482.532
 105835387.132 9  20139808.503
 127538719.262 6  24269829.658
 112531040.911 8  21413943.219
 14 10 27  5 51 30.0000000  0  9G05G02G10G31G29G21G25G24G12
 120023587.781 7  22839725.008
 120759711.519 7  22979815.487
 129054632.414 6  24558310.075
 120856524.704 7  22998236.799
 109080325.976 8  20757297.763
 122795259.466 7  23367155.883
 105825598.001 9  20137945.825
 127645597.578 6  24290166.898
 112587881.140 8  21424759.513
 14 10 27  5 52  0.0000000  0  9G05G02G10G31G29G21G25G24G12
 119989643.382 7  22833264.979
 120842503.865 7  22995570.246
 129098775.957 6  24566712.219
 120806299.816 7  22988679.148
 109060964.140 9  20753613.607
 122709685.165 7  23350872.404
 105816221.117 9  20136161.427
 127752440.264 6  24310499.137
 112645063.492 8  21435640.798
 14 10 27  5 52 30.0000000  0  9G05G02G10G31G29G21G25G24G12
 119956149.055 7  22826891.697
 120925466.146 7  23011356.456
 129143426.475 6  24575209.177
 120756543.494 7  22979211.819
 109041782.656 8  20749963.084
 122624330.196 7  23334629.624
 105807251.205 9  20134454.548
 127859238.672 6  24330822.086
 112702581.582 8  21446586.572
 14 10 27  5 53  0.0000000  0  9G05G02G10G31G29G21G25G24G12
 119923116.307 7  22820605.474
 121008605.462 7  23027178.197
 129188592.129 6  24583803.774
 120707266.351 7  22969834.578
 109022789.953 8  20746348.981
 122539205.713 7  23318430.129
 105798698.716 9  20132827.263
 127965999.134 7  24351138.939
 112760443.479 8  21457597.041
 14 10 27  5 53 30.0000000  0  9G05G02G10G31G29G21G25G24G12
 119890545.976 7  22814407.347
 121091918.932 7  23043031.895
 129234270.501 6  24592496.111
 120658468.843 7  22960548.381
 109003984.727 8  20742770.613
 122454311.846 7  23302276.094
 105790564.035 9  20131279.011
 128072717.814 6  24371446.061
 112818648.178 8  21468673.260
 14 10 27  5 54  0.0000000  0  9G05G02G10G31G29G21G25G24G12
 119858441.841 7  22808298.443
 121175406.104 7  23058919.797
 129280462.393 6  24601286.298
 120610153.922 7  22951354.215
 108985368.131 8  20739228.070
 122369652.114 7  23286165.420
 105782850.162 9  20129811.332
 128179393.880 6  24391747.035
 112877197.520 8  21479814.897
 14 10 27  5 54 30.0000000  0  9G05G02G10G31G29G21G25G24G12
 119826805.972 7  22802278.746
 121259065.054 7  23074839.987
 129327166.691 6  24610173.065
 120562323.269 7  22942252.906
 108966939.462 8  20735720.843
 122285227.733 7  23270099.635
 105775558.443 9  20128423.541
 128286024.773 6  24412038.032
 112936090.978 8  21491022.156
 14 10 27  5 55  0.0000000  0  9G05G02G10G31G29G21G25G24G12
 119795631.040 7  22796346.411
 121342884.169 7  23090790.745
 129374372.788 6  24619156.892
 120514968.941 7  22933241.951
 108948688.587 8  20732248.242
 122201030.855 7  23254078.522
 105768680.929 9  20127114.848
 128392598.577 6  24432317.921
 112995319.026 8  21502292.759
 14 10 27  5 55 30.0000000  0  9G05G02G10G31G29G21G25G24G12
 119764928.303 7  22790504.142
 121426870.578 7  23106771.159
 129422088.563 6  24628236.803
 120468101.502 7  22924322.679
 108930624.839 8  20728810.504
 122117072.023 7  23238101.248
 105762228.057 9  20125886.840
 128499122.331 6  24452589.956
 113054890.633 8  21513629.162
 14 10 27  5 56  0.0000000  0  9G05G02G10G31G29G21G25G24G12
 119734694.929 7  22784749.475
 121511017.551 7  23122784.579
 129470308.307 6  24637413.850
 120421717.778 7  22915496.411
 108912742.537 8  20725407.546
 122033347.724 7  23222168.857
 105756196.282 9  20124739.275
 128605588.639 6  24472851.264
 113114800.701 8  21525029.820
 14 10 27  5 56 30.0000000  0  9G05G02G10G31G29G21G25G24G12
 119704936.666 7  22779086.708
 121595326.812 7  23138828.664
 129519034.332 6  24646684.881
 120375822.904 7  22906762.521
 108895045.059 9  20722040.079
 121949863.262 7  23206281.940
 105750590.771 9  20123672.432
 128711998.515 5  24493096.939
 113175052.860 8  21536495.235
 14 10 27  5 57  0.0000000  0  9G05G02G10G31G29G21G25G24G12
 119675656.843 7  22773515.088
 121679797.484 7  23154902.955
 129568266.667 6  24656053.254
 120330419.595 7  22898122.692
 108877533.022 9  20718707.726
 121866621.539 7  23190441.374
 105745414.112 9  20122687.579
 128818350.952 6  24513340.895
 113235647.650 8  21548025.828
 14 10 27  5 57 30.0000000  0  9G05G02G10G31G29G21G25G24G12
 119646854.469 7  22768035.136
 121764424.801 7  23171007.259
 129618001.312 6  24665518.392
 120285506.432 7  22889575.429
 108860203.171 9  20715410.000
 121783620.994 7  23174647.277
 105740664.740 9  20121783.804
 128924640.815 5  24533562.880
 113296582.323 8  21559621.562
 14 10 27  5 58  0.0000000  0  9G05G02G10G31G29G21G25G24G12
 119618538.425 7  22762646.452
 121849213.186 7  23187141.267
 129668243.239 6  24675079.936
 120241091.193 7  22881124.164
 108843061.855 9  20712148.120
 121700869.794 7  23158900.423
 105736350.604 9  20120962.806
 129030872.066 5  24553778.626
 113357862.861 8  21571282.620
 14 10 27  5 58 30.0000000  0  9G05G02G10G31G29G21G25G24G12
 119590709.537 7  22757349.971
 121934159.924 7  23203307.069
 129718990.258 6  24684737.543
 120197174.156 7  22872767.198
 108826107.355 9  20708921.769
 121618368.269 7  23143201.066
 105732471.754 9  20120224.740
 129137040.885 5  24573983.772
 113419488.158 8  21583009.829
 14 10 27  5 59  0.0000000  0  9G05G02G10G31G29G21G25G24G12
 119563361.741 7  22752146.346
 122019255.091 7  23219500.169
 129770233.585 6  24694488.235
 120153749.004 7  22864503.426
 108809331.458 8  20705729.260
 121536109.681 7  23127548.024
 105729021.831 9  20119568.290
 129243137.275 4  24594173.546
 113481450.476 8  21594800.928
 14 10 27  5 59 30.0000000  0  9G05G02G10G31G29G21G25G24G12
 119536499.946 7  22747034.920
 122104499.348 7  23235721.937
 129821974.347 6  24704335.283
 120110820.040 8  22856334.680
 108792736.411 9  20702571.439
 121454098.648 7  23111941.694
 105726004.924 9  20118994.140
 129349162.594 3  24614342.578
 113543751.626 8  21606656.824
 14 10 27  6  0  0.0000000  0  9G05G02G10G31G29G21G25G24G12
 119510124.285 7  22742015.426
 122189889.346 7  23251971.111
 129874209.741 6  24714273.596
 120068387.153 8  22848260.145
 108776320.595 9  20699447.665
 121372335.100 7  23096381.191
 105723420.857 9  20118502.479
 129455104.104 4  24634513.999
 113606389.990 8  21618576.645
 14 10 27  6  0 30.0000000  0  9G05G02G10G31G29G21G25G24G12
 119484244.676 7  22737091.513
 122275430.884 7  23268248.531
 129926946.018 6  24724309.022
 120026459.124 8  22840281.332
 108760090.966 9  20696359.488
 121290827.974 7  23080871.449
 105721278.460 8  20118094.854
 129560964.806 4  24654655.815
 113669373.159 8  21630561.393
 14 10 27  6  1  0.0000000  0  9G05G02G10G31G29G21G25G24G12
 119458857.530 7  22732260.113
 122361116.438 7  23284554.074
 129980176.535 6  24734438.743
 119985031.899 8  22832398.185
 108744041.609 9  20693305.524
 121209573.344 7  23065409.827
 105719573.469 9  20117770.076
 129666763.178 4  24674794.280
 113732695.077 8  21642611.686
 14 10 27  6  1 30.0000000  0  8G05G02G10G31G29G21G25G12
 119433966.863 7  22727523.247
 122446946.545 7  23300887.123
 130033902.311 6  24744662.560
 119944109.241 7  22824610.233
 108728174.578 9  20690285.925
 121128574.913 7  23049996.109
 105718309.574 8  20117529.796
 113796357.841 8  21654725.955
 14 10 27  6  2  0.0000000  0  8G05G02G10G31G29G21G25G12
 119409566.822 7  22722879.745
 122532911.404 7  23317245.913
 130088114.270 6  24754978.941
 119903684.324 7  22816917.770
 108712481.581 9  20687299.691
 121047826.506 7  23034629.861
 105717480.222 9  20117371.971
 113860353.532 8  21666904.091
 14 10 27  6  2 30.0000000  0  8G05G02G10G31G29G21G25G12
 119385663.663 7  22718332.193
 122619013.748 7  23333630.633
 130142815.463 6  24765389.546
 119863763.308 7  22809320.911
 108696967.147 9  20684347.357
 120967333.694 7  23019312.736
 105717091.359 9  20117297.951
 113924686.287 8  21679146.156
 14 10 27  6  3  0.0000000  0  8G05G02G10G31G29G21G25G12
 119362259.389 7  22713877.264
 122705251.470 7  23350041.127
 130198004.078 6  24775890.188
 119824347.133 7  22801820.094
 108681630.691 9  20681428.977
 120887097.905 7  23004044.688
 105717144.016 8  20117307.990
 113989355.419 8  21691452.433
 14 10 27  6  3 30.0000000  0  8G05G02G10G31G29G21G25G12
 119339354.057 7  22709519.224
 122791621.246 7  23366477.473
 130253677.301 6  24786485.013
 119785435.494 8  22794416.148
 108666470.188 9  20678544.297
 120807119.114 7  22988824.629
 105717637.812 8  20117402.028
 114054359.433 8  21703822.519
 14 10 27  6  4  0.0000000  0  8G05G02G10G31G29G21G25G12
 119316953.865 7  22705256.893
 122878125.211 7  23382939.140
 130309838.024 6  24797171.827
 119747034.105 8  22787108.899
 108651489.666 9  20675693.379
 120727402.958 7  22973655.047
 105718578.333 8  20117580.985
 114119701.846 8  21716256.742
 14 10 27  6  4 30.0000000  0  8G05G02G10G31G29G21G25G12
 119295053.629 7  22701088.888
 122964754.883 7  23399424.941
 130366478.188 6  24807950.480
 119709137.440 8  22779897.344
 108636681.788 9  20672875.284
 120647944.041 7  22958534.063
 105719959.970 9  20117843.752
 114185375.351 8  21728753.891
 14 10 27  6  5  0.0000000  0  8G05G02G10G31G29G21G25G12
 119273659.897 7  22697017.892
 123051513.060 7  23415932.911
 130423600.923 6  24818821.583
 119671750.963 7  22772782.155
 108622051.136 9  20670091.428
 120568748.201 7  22943464.349
 105721788.547 9  20118191.936
 114251384.537 8  21741315.207
 14 10 27  6  5 30.0000000  0  8G05G02G10G31G29G21G25G12
 119252772.945 7  22693042.799
 123138396.283 7  23432466.677
 130481202.779 6  24829782.437
 119634874.281 7  22765764.683
 108607595.212 9  20667340.550
 120489815.154 7  22928443.421
 105724063.415 8  20118624.913
 114317727.033 8  21753940.160
 14 10 27  6  6  0.0000000  0  8G05G02G10G31G29G21G25G12
 119232394.107 7  22689164.985
 123225402.655 7  23449023.649
 130539282.517 6  24840833.733
 119598508.291 8  22758844.973
 108593314.135 9  20664623.144
 120411146.222 7  22913473.720
 105726785.964 8  20119143.005
 114384402.929 8  21766627.998
 14 10 27  6  6 30.0000000  0  8G05G02G10G31G29G21G25G12
 119212532.228 7  22685385.910
 123312537.451 7  23465604.805
 130597845.399 6  24851977.848
 119562661.634 7  22752023.388
 108579214.456 9  20661939.926
 120332750.073 7  22898554.993
 105729964.325 9  20119748.036
 114451418.462 8  21779380.794
 14 10 27  6  7  0.0000000  0  8G05G02G10G31G29G21G25G12
 119193181.599 7  22681703.731
 123399791.291 7  23482209.069
 130656882.596 6  24863214.238
 119527328.221 7  22745299.749
 108565288.528 9  20659289.680
 120254620.470 7  22883687.961
 105733592.281 9  20120438.299
 114518766.079 8  21792196.119
 14 10 27  6  7 30.0000000  0  8G05G02G10G31G29G21G25G12
 119174341.936 8  22678118.226
 123487160.257 7  23498834.394
 130716390.245 6  24874537.364
 119492506.920 8  22738674.198
 108551534.090 9  20656672.669
 120176756.924 7  22868870.919
 105737668.911 9  20121214.017
 114586443.546 8  21805075.291
 14 10 27  6  8  0.0000000  0  8G05G02G10G31G29G21G25G12
 119156025.706 8  22674632.861
 123574653.503 7  23515484.690
 130776377.906 6  24885953.392
 119458209.380 8  22732147.377
 108537961.449 9  20654089.796
 120099171.096 7  22854107.269
 105742206.193 9  20122077.281
 114654460.336 8  21818018.334
 14 10 27  6  8 30.0000000  0  8G05G02G10G31G29G21G25G12
 119138227.315 8  22671246.239
 123662262.270 7  23532155.809
 130836836.875 6  24897458.645
 119424429.769 8  22725719.283
 108524563.238 9  20651540.509
 120021857.652 7  22839394.229
 105747198.183 9  20123027.399
 114722809.603 8  21831024.960
 14 10 27  6  9  0.0000000  0  8G05G02G10G31G29G21G25G12
 119120949.290 8  22667958.408
 123749985.344 7  23548848.501
 130897766.329 6  24909051.424
 119391170.101 7  22719389.713
 108511340.278 9  20649023.849
 119944818.694 7  22824733.693
 105752646.823 9  20124064.407
 114791491.620 8  21844094.763
 14 10 27  6  9 30.0000000  0  8G05G02G10G31G29G21G25G12
 119104192.125 8  22664768.948
 123837819.823 7  23565564.142
 130959163.506 6  24920736.854
 119358429.890 7  22713159.514
 108498291.082 9  20646540.597
 119868054.115 7  22810126.427
 105758551.906 9  20125187.881
 114860504.669 8  21857227.710
 14 10 27  6 10  0.0000000  0  8G05G02G10G31G29G21G25G12
 119087948.404 7  22661678.791
 123925755.016 7  23582297.733
 131021018.123 6  24932506.682
 119326201.502 7  22707026.163
 108485406.206 8  20644088.994
 119791556.540 7  22795569.206
 105764905.874 9  20126397.270
 114929839.653 8  21870421.638
 14 10 27  6 10 30.0000000  0  8G05G02G10G31G29G21G25G12
 119072223.782 8  22658686.835
 124013793.202 7  23599051.276
 131083332.490 6  24944364.140
 119294489.981 7  22700992.121
 108472689.439 9  20641669.124
 119715331.152 7  22781064.313
 105771713.687 9  20127692.674
 114999500.022 8  21883677.739
 14 10 27  6 11  0.0000000  0  8G05G02G10G31G29G21G25G12
 119057022.589 8  22655793.594
 124101935.682 7  23615824.231
 131146107.860 6  24956309.569
 119263299.250 7  22695056.800
 108460143.723 9  20639281.544
 119639382.568 7  22766612.081
 105778979.396 9  20129075.399
 115069488.128 8  21896995.910
 14 10 27  6 11 30.0000000  0  8G05G02G10G31G29G21G25G12
 119042342.037 8  22653000.168
 124190175.993 7  23632615.186
 131209337.888 5  24968341.999
 119232625.503 7  22689220.065
 108447764.150 9  20636925.723
 119563707.047 7  22752211.562
 105786699.422 9  20130544.603
 115139798.624 8  21910375.802
 14 10 27  6 12  0.0000000  0  8G05G02G10G31G29G21G25G12
 119028187.074 7  22650306.659
 124278516.310 7  23649425.945
 131273024.662 6  24980461.405
 119202473.556 7  22683481.482
 108435554.356 8  20634602.256
 119488309.783 7  22737864.052
 105794878.488 9  20132101.092
 115210434.784 8  21923817.018
 14 10 27  6 12 30.0000000  0  8G05G02G10G31G29G21G25G12
 119014557.242 8  22647712.618
 124366952.953 7  23666254.425
 131337164.786 6  24992667.452
 119172842.615 7  22677843.714
 108423512.327 9  20632311.121
 119413190.312 7  22723568.911
 105803516.007 9  20133744.819
 115281394.755 8  21937320.924
 14 10 27  6 13  0.0000000  0  8G05G02G10G31G29G21G25G12
 119001458.784 8  22645220.054
 124455488.497 7  23683103.643
 131401760.634 5  25004958.092
 119143737.726 7  22672304.931
 108411641.775 9  20630052.154
 119338354.066 7  22709327.684
 105812617.195 9  20135476.497
 115352682.257 8  21950886.429
 14 10 27  6 13 30.0000000  0  8G05G02G10G31G29G21G25G12
 118988890.436 8  22642828.772
 124544118.885 7  23699969.492
 131466808.394 6  25017338.751
 119115157.626 7  22666866.476
 108399940.175 9  20627825.458
 119263799.739 7  22695140.767
 105822180.645 9  20137296.527
 115424294.277 8  21964514.266
 14 10 27  6 14  0.0000000  0  8G05G02G10G31G29G21G25G12
 118976855.920 8  22640537.918
 124632844.806 7  23716853.075
 131532308.955 6  25029802.420
 119087105.597 7  22661528.233
 108388410.128 8  20625631.067
 119189531.381 7  22681007.371
 105832209.842 9  20139205.098
 115496232.580 8  21978203.237
 14 10 27  6 14 30.0000000  0  8G05G02G10G31G29G21G25G12
 118965357.869 8  22638349.891
 124721665.948 7  23733756.174
 131598261.110 6  25042351.447
 119059583.134 8  22656291.291
 108377052.314 9  20623469.876
 119115551.185 7  22666929.399
 105842706.899 9  20141202.522
 115568497.821 8  21991955.090
 14 10 27  6 15  0.0000000  0  8G05G02G10G31G29G21G25G12
 118954390.927 8  22636263.627
 124810573.196 7  23750673.582
 131664656.131 6  25054987.380
 119032584.593 8  22651152.994
 108365859.401 9  20621340.391
 119041853.218 7  22652904.961
 105853665.662 9  20143288.054
 115641081.968 8  22005767.069
 14 10 27  6 15 30.0000000  0  8G05G02G10G31G29G21G25G12
 118943957.586 8  22634277.950
 124899566.699 7  23767609.631
 131731494.205 6  25067707.276
 119006112.404 8  22646116.293
 108354833.241 9  20619241.905
 118968440.588 7  22638935.083
 105865088.973 9  20145461.466
 115713986.935 8  22019640.626
 14 10 27  6 16  0.0000000  0  8G05G02G10G31G29G21G25G12
 118934070.259 8  22632396.023
 124988655.389 7  23784563.626
 131798784.273 6  25080511.614
 118980177.866 8  22641181.271
 108343984.191 9  20617177.349
 118895325.000 7  22625022.425
 105876988.213 9  20147726.288
 115787222.324 8  22033576.863
 14 10 27  6 16 30.0000000  0  8G05G02G10G31G29G21G25G12
 118924726.215 8  22630619.013
 125077833.876 7  23801533.361
 131866520.480 6  25093402.566
 118954777.946 8  22636348.023
 108333308.103 9  20615145.763
 118822504.042 7  22611164.820
 105889360.564 9  20150080.643
 115860783.820 8  22047575.211
 14 10 27  6 17  0.0000000  0  8G05G02G10G31G29G21G25G12
 118915931.047 7  22628944.952
 125167104.766 7  23818520.599
 131934705.435 6  25106377.756
 118929917.709 8  22631617.239
 108322809.323 8  20613147.746
 118749982.922 7  22597363.742
 105902211.318 9  20152526.015
 115934675.206 8  22061636.786
 14 10 27  6 17 30.0000000  0  8G05G02G10G31G29G21G25G12
 118907685.395 7  22627376.018
 125256466.028 7  23835526.722
 132003337.000 6  25119438.051
 118905597.235 8  22626988.844
 108312486.894 8  20611183.500
 118677762.583 7  22583621.451
 105915540.700 9  20155062.630
 116008895.129 8  22075760.275
 14 10 27  6 18  0.0000000  0  8G05G02G10G31G29G21G25G12
 118899987.166 8  22625911.346
 125345912.221 7  23852546.683
 132072409.492 6  25132580.596
 118881813.615 7  22622462.549
 108302337.158 8  20609252.243
 118605840.406 7  22569934.619
 105929346.145 9  20157689.671
 116083440.124 8  22089945.395
 14 10 27  6 18 30.0000000  0  8G05G02G10G31G29G21G25G12
 118892839.223 8  22624550.265
 125435443.410 7  23869584.032
 132141922.704 6  25145807.660
 118858569.315 8  22618039.268
 108292361.932 8  20607353.939
 118534219.344 7  22556306.158
 105943630.158 9  20160407.652
 116158310.284 8  22104193.504
 14 10 27  6 19  0.0000000  0  8G05G02G10G31G29G21G25G12
 118886246.670 8  22623296.028
 125525062.455 7  23886638.203
 132211879.322 5  25159121.386
 118835869.188 7  22613720.164
 108282564.922 8  20605489.758
 118462904.451 7  22542734.901
 105958397.638 9  20163218.227
 116233509.043 8  22118503.039
 14 10 27  6 19 30.0000000  0  8G05G02G10G31G29G21G25G12
 118880208.402 8  22622147.383
 125614764.930 7  23903708.223
 132282274.945 6  25172518.692
 118813711.730 8  22609503.299
 108272943.508 8  20603658.831
 118391894.631 7  22529222.164
 105973647.128 9  20166119.746
 116309034.072 8  22132875.101
 14 10 27  6 20  0.0000000  0  8G05G02G10G31G29G21G25G12
 118874719.280 8  22621102.733
 125704543.222 7  23920793.470
 132353101.325 6  25185997.066
 118792091.133 8  22605389.662
 108263491.674 8  20601860.399
 118321184.767 7  22515766.734
 105989373.249 9  20169112.492
 116384878.191 8  22147307.771
 14 10 27  6 20 30.0000000  0  8G05G02G10G31G29G21G25G12
 118869784.266 8  22620163.314
 125794399.102 7  23937891.582
 132424360.189 6  25199554.191
 118771011.394 8  22601377.961
 108254212.660 8  20600094.502
 118250779.442 7  22502369.324
 106005580.270 9  20172197.004
 116461044.659 8  22161802.059
 14 10 27  6 21  0.0000000  0  8G05G02G10G31G29G21G25G12
 118865406.520 8  22619330.513
 125884333.641 7  23955005.883
 132496052.445 6  25213197.834
 118750475.803 8  22597470.153
 108245109.253 8  20598362.191
 118180682.638 7  22489029.290
 106022271.726 9  20175373.023
 116537535.051 8  22176358.112
 14 10 27  6 21 30.0000000  0  8G05G02G10G31G29G21G25G12
 118861591.769 8  22618604.171
 125974349.924 7  23972136.042
 132568180.272 5  25226922.210
 118730489.671 8  22593667.225
 108236186.009 8  20596664.345
 118110900.133 7  22475750.141
 106039453.036 8  20178642.355
 116614353.100 8  22190975.909
 14 10 27  6 22  0.0000000  0  8G05G02G10G31G29G21G25G12
 118858330.195 7  22617984.381
 126064434.994 7  23989278.141
 132640730.742 6  25240729.378
 118711041.898 8  22589966.149
 108227430.850 8  20594998.174
 118041421.133 7  22462529.348
 106057113.296 9  20182003.184
 116691486.788 8  22205653.636
 14 10 27  6 22 30.0000000  0  8G05G02G10G31G29G21G25G12
 118855620.448 8  22617468.182
 126154585.321 6  24006432.417
 132713700.082 6  25254614.790
 118692131.190 8  22586367.928
 108218842.202 8  20593363.930
 117972245.008 7  22449365.369
 106075251.457 9  20185454.736
 116768933.620 8  22220391.499
 14 10 27  6 23  0.0000000  0  8G05G02G10G31G29G21G25G12
 118853473.307 8  22617059.391
 126244809.043 6  24023602.427
 132787095.725 5  25268582.867
 118673767.764 8  22582873.443
 108210429.616 8  20591763.368
 117903382.580 7  22436261.605
 106093877.971 8  20188999.107
 116846702.737 8  22235190.850
 14 10 27  6 23 30.0000000  0  8G05G02G10G31G29G21G25G12
 118851891.944 8  22616758.507
 126335106.614 7  24040787.006
 132860917.705 5  25282629.974
 118655953.690 8  22579483.379
 108202194.809 8  20590195.987
 117834836.758 7  22423217.643
 106112995.511 8  20192637.406
 116924795.259 8  22250051.743
 14 10 27  6 24  0.0000000  0  8G05G02G10G31G29G21G25G12
 118850875.144 8  22616564.755
 126425474.303 6  24057982.539
 132935161.973 5  25296757.079
 118638687.288 8  22576197.847
 108194135.765 8  20588662.731
 117766606.765 7  22410233.412
 106132602.564 8  20196368.547
 117003208.323 8  22264973.079
 14 10 27  6 24 30.0000000  0  8G05G02G10G31G29G21G25G12
 118850420.298 8  22616478.994
 126515907.295 6  24075191.089
 133009824.014 5  25310963.321
 118621966.574 8  22573015.574
 108186249.236 8  20587162.114
 117698690.402 7  22397309.323
 106152696.839 8  20200191.937
 117081937.847 7  22279955.108
 14 10 27  6 25  0.0000000  0  8G05G02G10G31G29G21G25G12
 118850526.236 8  22616498.813
 126606401.869 6  24092412.570
 133084898.955 5  25325249.849
 118605788.978 8  22569937.131
 108178532.699 8  20585693.420
 117631085.949 7  22384445.067
 106173276.330 8  20204108.534
 117160980.781 8  22294996.215
 14 10 27  6 25 30.0000000  0  8G05G02G10G31G29G21G25G12
 118851196.684 7  22616626.198
 126696959.608 6  24109645.475
 133160388.159 6  25339617.196
 118590157.995 8  22566962.891
 108170989.114 8  20584257.856
 117563797.643 7  22371640.488
 106194344.906 8  20208117.788
 117240339.216 7  22310097.690
 14 10 27  6 26  0.0000000  0  8G05G02G10G31G29G21G25G12
 118852436.377 8  22616862.275
 126787582.588 6  24126890.773
 133236292.939 6  25354062.441
 118575077.883 8  22564093.686
 108163622.276 8  20582855.836
 117496830.021 7  22358897.006
 106215906.927 8  20212220.821
 117320016.529 8  22325260.164
 14 10 27  6 26 30.0000000  0  7G05G02G31G29G21G25G12
 118854238.928 8  22617205.920
 126878262.174 6  24144146.777
 118560541.643 8  22561327.498
 108156425.101 8  20581486.536
 117430177.625 7  22346213.399
 106237955.920 8  20216416.520
 117400004.385 7  22340481.501
 14 10 27  6 27  0.0000000  0  7G05G02G31G29G21G25G12
 118856606.946 7  22617656.388
 126968998.462 6  24161413.038
 118546550.776 8  22558665.038
 108149398.931 8  20580149.339
 117363842.488 7  22333590.329
 106260494.006 8  20220705.319
 117480303.843 7  22355761.840
 14 10 27  6 27 30.0000000  0  7G05G02G31G29G21G25G12
 118859541.501 8  22618214.839
 127059790.563 6  24178689.703
 118533106.723 8  22556106.504
 108142544.098 8  20578845.096
 117297825.910 7  22321027.720
 106283522.128 8  20225087.641
 117560914.176 7  22371101.663
 14 10 27  6 28  0.0000000  0  7G05G02G31G29G21G25G12
 118863041.306 8  22618880.470
 127150634.742 6  24195977.332
 118520207.676 8  22553652.533
 108135858.853 8  20577573.223
 117232126.913 7  22308525.607
 106307039.003 8  20229562.827
 117641833.001 7  22386499.747
 14 10 27  6 28 30.0000000  0  7G05G02G31G29G21G25G12
 118867104.431 8  22619653.948
 127241527.098 6  24213273.063
 118507850.933 8  22551301.058
 108129340.655 8  20576333.052
 117166744.074 7  22296083.633
 106331042.606 8  20234130.412
 117723056.721 7  22401956.244
 14 10 27  6 29  0.0000000  0  7G05G02G31G29G21G25G12
 118871734.234 8  22620534.985
 127332468.900 6  24230579.332
 118496039.599 8  22549052.799
 108122992.108 8  20575124.886
 117101680.529 7  22283702.252
 106355535.954 8  20238791.634
 117804587.107 7  22417470.854
 14 10 27  6 29 30.0000000  0  7G05G02G31G29G21G25G12
 118876931.553 8  22621523.945
 127423458.375 6  24247893.453
 118484773.475 8  22546909.178
 108116812.953 8  20573948.640
 117036937.447 7  22271382.510
 106380519.458 8  20243545.589
 117886423.094 7  22433044.036
 14 10 27  6 30  0.0000000  0  7G05G02G31G29G21G25G12
 118882694.919 8  22622621.151
 127514492.022 6  24265217.189
 118474051.085 8  22544868.993
 108110801.188 8  20572804.948
 116972513.956 7  22259122.490
 106405991.716 8  20248393.282
 117968562.028 7  22448675.118
 14 10 27  6 30 30.0000000  0  7G05G02G31G29G21G25G12
 118889023.649 8  22623824.797
 127605567.037 6  24282547.999
 118463871.038 8  22542931.528
 108104955.357 8  20571692.274
 116908409.278 7  22246923.874
 106431951.714 8  20253333.264
 118051001.459 7  22464362.866
 14 10 27  6 31  0.0000000  0  7G05G02G31G29G21G25G12
 118895915.484 8  22625136.581
 127696679.718 6  24299886.801
 118454230.964 8  22541097.540
 108099273.223 8  20570611.111
 116844621.636 7  22234785.571
 106458397.606 8  20258365.703
 118133738.232 7  22480106.868
 14 10 27  6 31 30.0000000  0  7G05G02G31G29G21G25G12
 118903375.171 8  22626556.639
 127787832.438 6  24317232.719
 118445135.013 8  22539366.259
 108093758.604 8  20569561.584
 116781156.281 7  22222708.300
 106485333.661 8  20263491.611
 118216775.349 7  22495908.409
 14 10 27  6 32  0.0000000  0  7G05G02G31G29G21G25G12
 118911406.262 8  22628084.905
 127879026.624 6  24334587.750
 118436585.940 7  22537740.156
 108088414.243 8  20568544.924
 116718016.526 7  22210693.296
 106512763.073 8  20268710.889
 118300114.767 7  22511767.405
 14 10 27  6 32 30.0000000  0  7G05G02G31G29G21G25G12
 118920015.143 8  22629723.082
 127970266.976 6  24351949.542
 118428589.796 7  22536218.106
 108083246.578 8  20567561.757
 116655209.445 7  22198741.829
 106540692.385 8  20274025.976
 118383761.387 7  22527685.014
 14 10 27  6 33  0.0000000  0  7G05G02G31G29G21G25G12
 118929192.962 8  22631469.354
 128061542.490 6  24369320.014
 118421137.087 7  22534800.099
 108078245.979 8  20566610.152
 116592726.252 7  22186851.373
 106569112.343 8  20279434.121
 118467704.739 7  22543658.830
 14 10 27  6 33 30.0000000  0  7G05G02G31G29G21G25G12
 118938942.005 8  22633324.730
 128152853.731 6  24386694.749
 118414229.903 8  22533485.810
 108073414.500 8  20565690.763
 116530569.901 7  22175023.236
 106598025.515 8  20284936.234
 118551946.132 7  22559690.258
 14 10 27  6 34  0.0000000  0  7G05G02G31G29G21G25G12
 118949255.232 8  22635286.888
 128244191.610 6  24404075.153
 118407860.889 8  22532273.628
 108068744.616 8  20564801.669
 116468733.703 7  22163256.686
 106627424.615 8  20290530.588
 118636477.195 7  22575775.410
 14 10 27  6 34 30.0000000  0  7G05G02G31G29G21G25G12
 118960137.109 8  22637358.343
 128335558.990 6  24421462.726
 118402033.730 7  22531164.861
 108064240.316 8  20563944.587
 116407222.156 7  22151551.011
 106657313.851 8  20296218.428
 118721300.624 7  22591917.288
 14 10 27  6 35  0.0000000  0  7G05G02G31G29G21G25G12
 118971583.787 8  22639536.143
 128426950.297 6  24438854.491
 118396744.219 7  22530158.162
 108059897.576 8  20563118.207
 116346032.147 7  22139906.873
 106687689.502 8  20301998.770
 118806411.331 7  22608113.066
 14 10 27  6 35 30.0000000  0  7G05G02G31G29G21G25G12
 118983594.811 8  22641821.283
 128518363.196 6  24456250.729
 118391991.287 8  22529254.408
 108055715.698 8  20562322.366
 116285163.554 7  22128323.912
 106718551.006 8  20307871.497
 118891807.644 7  22624363.094
 14 10 27  6 36  0.0000000  0  7G05G02G31G29G21G25G12
 118996176.305 8  22644216.087
 128609802.058 6  24473650.158
 118387780.703 7  22528452.384
 108051700.492 8  20561558.461
 116224622.918 7  22116802.841
 106749904.312 8  20313838.026
 118977494.652 7  22640669.781
 14 10 27  6 36 30.0000000  0  7G05G02G31G29G21G25G12
 119009327.997 8  22646718.805
 128701265.045 6  24491056.274
 118384111.824 8  22527754.855
 108047851.221 8  20560826.222
 116164410.459 7  22105345.644
 106781749.051 8  20319897.773
 119063469.825 7  22657030.762
 14 10 27  6 37  0.0000000  0  7G05G02G31G29G21G25G12
 119023050.450 8  22649329.844
 128792751.266 6  24508463.602
 118380984.745 7  22527159.213
 108044168.550 8  20560125.572
 116104526.838 7  22093949.970
 106814085.889 9  20326051.369
 119149733.014 7  22673446.055
 14 10 27  6 37 30.0000000  0  7G05G02G31G29G21G25G12
 119037342.241 8  22652049.652
 128884257.537 6  24525878.143
 118378397.624 7  22526667.170
 108040650.823 8  20559456.071
 116044971.381 7  22082616.736
 106846913.419 9  20332298.402
 119236281.624 7  22689915.435
 14 10 27  6 38  0.0000000  0  7G05G02G31G29G21G25G12
 119052199.807 8  22654876.754
 128975778.524 6  24543293.005
 118376346.110 7  22526277.041
 108037293.886 8  20558817.225
 115985740.923 7  22071346.022
 106880227.750 8  20338637.913
 119323110.432 7  22706438.404
 14 10 27  6 38 30.0000000  0  7G05G02G31G29G21G25G12
 119067627.530 8  22657812.566
 129067317.394 6  24560712.879
 118374834.497 8  22525989.197
 108034102.412 8  20558209.819
 115926840.164 7  22060137.271
 106914033.368 9  20345070.669
 119410222.870 7  22723015.945
 14 10 27  6 39  0.0000000  0  7G05G02G31G29G21G25G12
 119083623.193 8  22660857.361
 129158870.133 6  24578136.012
 118373860.057 7  22525803.770
 108031073.902 8  20557633.818
 115868267.472 7  22048991.199
 106948327.890 9  20351596.953
 119497615.089 7  22739645.613
 14 10 27  6 39 30.0000000  0  7G05G02G31G29G21G25G12
 119100186.783 8  22664009.071
 129250435.256 6  24595559.542
 118373422.431 7  22525719.864
 108028208.852 8  20557088.227
 115810023.880 7  22037907.917
 106983111.593 9  20358215.826
 119585286.490 7  22756329.130
 14 10 27  6 40  0.0000000  0  7G05G02G31G29G21G25G12
 119117313.216 8  22667268.066
 129342006.559 6  24612985.028
 118373515.764 7  22525738.326
 108025501.548 8  20556573.385
 115752104.240 8  22026886.637
 107018379.134 9  20364927.530
 119673230.259 7  22773064.649
 14 10 27  6 40 30.0000000  0  7G05G02G31G29G21G25G12
 119135013.283 8  22670635.653
 129433593.336 6  24630413.677
 118374150.639 7  22525859.370
 108022963.044 8  20556090.117
 115694519.909 8  22015928.277
 107054141.412 9  20371732.417
 119761456.182 7  22789853.488
 14 10 27  6 41  0.0000000  0  7G05G02G31G29G21G25G12
 119153278.926 8  22674111.146
 129525185.967 6  24647844.286
 118375318.404 7  22526081.117
 108020585.234 8  20555637.846
 115637263.379 8  22005032.559
 107090390.357 9  20378630.742
 119849955.029 7  22806694.830
 14 10 27  6 41 30.0000000  0  7G05G02G31G29G21G25G12
 119172112.967 8  22677696.419
 129616785.846 6  24665274.402
 118377021.256 7  22526405.080
 108018370.872 8  20555216.492
 115580337.997 8  21994199.993
 107127128.551 9  20385621.896
 119938728.278 7  22823587.658
 14 10 27  6 42  0.0000000  0  7G05G02G31G29G21G25G12
 119191508.387 8  22681386.931
 129708384.502 6  24682705.927
 118379252.045 7  22526830.266
 108016313.174 8  20554825.067
 115523737.290 8  21983429.418
 107164349.086 9  20392704.464
 120027767.817 7  22840531.169
 14 10 27  6 42 30.0000000  0  7G05G02G31G29G21G25G12
 119211473.626 8  22685186.607
 129799990.036 6  24700137.951
 118382018.915 7  22527356.334
 108014421.103 8  20554464.991
 115467470.716 8  21972722.192
 107202060.855 9  20399880.954
 120117081.166 7  22857527.321
 14 10 27  6 43  0.0000000  0  7G05G02G31G29G21G25G12
 119232015.705 8  22689095.177
 129891607.384 6  24717572.875
 118385328.098 7  22527985.824
 108012701.431 8  20554137.925
 115411545.406 8  21962080.001
 107240270.415 9  20407152.221
 120206674.058 7  22874576.132
 14 10 27  6 43 30.0000000  0  7G05G02G31G29G21G25G12
 119253123.350 8  22693111.675
 129983224.037 6  24735005.838
 118389167.750 7  22528717.135
 108011143.255 8  20553841.130
 115355950.972 8  21951500.911
 107278966.517 9  20414515.848
 120296534.069 7  22891676.297
 14 10 27  6 44  0.0000000  0  7G05G02G31G29G21G25G12
 119274800.363 8  22697236.860
 130074842.877 6  24752440.107
 118393541.569 7  22529549.302
 108009750.138 8  20553576.136
 115300691.688 8  21940985.435
 107318153.237 9  20421972.787
 120386663.868 7  22908827.695
 14 10 27  6 44 30.0000000  0  7G05G02G31G29G21G25G12
 119297037.645 8  22701468.700
 130166453.550 6  24769874.065
 118398440.087 8  22530481.502
 108008513.766 9  20553341.088
 115245759.278 8  21930531.954
 107357821.445 9  20429521.539
 120477053.415 7  22926027.901
 14 10 27  6 45  0.0000000  0  8G05G02G18G31G29G21G25G12
 119319834.346 8  22705806.473
 130258054.479 6  24787304.842
 128534477.646 6  24459297.697
 118403862.024 7  22531513.524
 108007433.869 8  20553135.544
 115191153.370 8  21920140.567
 107397970.557 9  20437161.589
 120567700.981 7  22943278.331
 14 10 27  6 45 30.0000000  0  8G05G02G18G31G29G21G25G12
 119343195.345 8  22710252.087
 130349648.964 6  24804736.043
 128439875.279 6  24441296.832
 118409811.578 7  22532645.827
 108006514.886 9  20552960.588
 115136879.452 8  21909812.737
 107438605.060 9  20444894.107
 120658609.997 7  22960578.037
 14 10 27  6 46  0.0000000  0  8G05G02G18G31G29G21G25G12
 119367119.865 8  22714804.968
 130441235.603 6  24822165.455
 128345203.638 6  24423280.534
 118416287.875 7  22533877.597
 108005756.811 9  20552816.527
 115082937.477 8  21899547.725
 107479724.616 9  20452718.893
 120749779.261 7  22977926.966
 14 10 27  6 46 30.0000000  0  8G05G02G18G31G29G21G25G12
 119391608.375 8  22719464.784
 130532813.733 6  24839592.396
 128250466.036 6  24405252.629
 118423290.879 8  22535211.278
 108005160.713 9  20552702.935
 115029328.807 8  21889346.806
 107521329.690 9  20460636.423
 120841207.976 7  22995324.657
 14 10 27  6 47  0.0000000  0  8G05G02G18G31G29G21G25G12
 119416668.576 8  22724234.198
 130624389.870 6  24857017.932
 128155672.386 6  24387213.070
 118430827.550 8  22536644.985
 108004734.353 8  20552622.135
 114976061.749 8  21879210.045
 107563427.866 9  20468647.173
 120932902.336 7  23012774.012
 14 10 27  6 47 30.0000000  0  8G05G02G18G31G29G21G25G12
 119442296.681 8  22729111.026
 130715959.366 6  24874442.362
 128060821.986 6  24369163.726
 118438893.830 8  22538180.855
 108004474.537 8  20552572.637
 114923133.151 8  21869138.072
 107606015.590 9  20476751.743
 121024858.109 7  23030273.157
 14 10 27  6 48  0.0000000  0  8G05G02G18G31G29G21G25G12
 119468484.905 8  22734094.284
 130807513.540 6  24891866.306
 127965909.530 6  24351103.144
 118447481.374 8  22539814.460
 108004373.730 9  20552553.265
 114870535.891 8  21859129.314
 107649084.989 9  20484947.356
 121117066.278 7  23047819.893
 14 10 27  6 48 30.0000000  0  8G05G02G18G31G29G21G25G12
 119495233.641 7  22739184.460
 130899052.164 6  24909284.620
 127870939.285 7  24333031.340
 118456590.423 8  22541547.858
 108004433.113 8  20552564.618
 114818271.465 8  21849183.448
 107692636.967 9  20493235.299
 121209526.532 7  23065414.827
 14 10 27  6 49  0.0000000  0  8G05G02G18G31G29G21G25G12
 119522542.439 7  22744381.227
 130990573.773 6  24926700.329
 127775913.291 7  24314948.401
 118466220.346 8  22543379.851
 108004652.708 8  20552606.562
 114766339.855 8  21839301.290
 107736670.942 9  20501614.545
 121302237.546 7  23083056.855
 14 10 27  6 49 30.0000000  0  8G05G02G18G31G29G21G25G12
 119550418.260 7  22749685.510
 131082084.511 6  24944115.666
 127680840.890 7  24296857.116
 118476377.470 8  22545312.424
 108005040.246 8  20552680.182
 114714748.779 8  21829483.988
 107781194.009 9  20510087.065
 121395205.234 7  23100748.365
 14 10 27  6 50  0.0000000  0  8G05G02G18G31G29G21G25G12
 119578850.349 7  22755096.572
 131173572.574 5  24961523.646
 127585714.175 6  24278753.466
 118487050.279 7  22547343.849
 108005585.187 8  20552784.383
 114663488.392 8  21819729.527
 107826195.274 9  20518650.518
 121488417.939 7  23118485.986
 14 10 27  6 50 30.0000000  0  8G05G02G18G31G29G21G25G12
 119607839.090 7  22760612.785
 131265037.859 5  24978929.752
 127490536.992 6  24260642.395
 118498239.191 7  22549473.117
 108006288.816 8  20552917.941
 114612559.609 8  21810037.996
 107871675.534 9  20527305.350
 121581875.222 7  23136270.872
 14 10 27  6 51  0.0000000  0  8G05G02G18G31G29G21G25G12
 119637391.855 7  22766236.436
 131356486.501 5  24996331.524
 127395318.970 7  24242523.271
 118509950.588 7  22551701.329
 108007158.854 8  20553083.486
 114561970.280 8  21800410.989
 107917641.619 9  20536052.242
 121675582.804 7  23154103.201
 14 10 27  6 51 30.0000000  0  8G05G02G18G31G29G21G25G12
 119667501.359 7  22771966.502
 131447911.430 5  25013731.515
 127300056.490 7  24224395.487
 118522177.318 7  22554028.360
 108008188.815 8  20553279.675
 114511714.768 8  21790848.099
 107964087.125 9  20544890.685
 121769533.298 7  23171981.326
 14 10 27  6 52  0.0000000  0  8G05G02G18G31G29G21G25G12
 119698175.396 7  22777803.632
 131539319.431 5  25031124.741
 127204760.891 6  24206260.338
 118534926.779 7  22556454.849
 108009387.439 8  20553507.703
 114461801.498 8  21781349.784
 108011019.912 9  20553821.473
 121863733.565 7  23189907.799
 14 10 27  6 52 30.0000000  0  8G05G02G18G31G29G21G25G12
 119729404.552 7  22783745.800
 131630700.229 5  25048513.483
 127109424.666 6  24188116.885
 118548188.694 8  22558978.331
 108010745.885 8  20553766.263
 114412221.636 8  21771914.919
 108058430.324 9  20562843.941
 121958173.407 7  23207878.473
 14 10 27  6 53  0.0000000  0  8G05G02G18G31G29G21G25G12
 119761192.081 7  22789794.430
 131722056.682 5  25065900.145
 127014054.845 7  24169969.649
 118561966.337 8  22561600.408
 108012268.421 8  20554056.108
 114362979.272 8  21762544.679
 108106322.126 9  20571957.483
 122052855.365 7  23225895.619
 14 10 27  6 53 30.0000000  0  8G05G02G18G31G29G21G25G12
 119793536.171 7  22795950.408
 131813386.723 5  25083278.712
 126918652.481 7  24151814.665
 118576257.293 8  22564319.744
 108013953.764 9  20554376.733
 114314073.563 8  21753238.014
 108154693.575 9  20581162.390
 122147777.028 7  23243959.276
 14 10 27  6 54  0.0000000  0  8G05G02G18G31G29G21G25G12
 119826433.950 7  22802210.486
 131904686.690 5  25100649.684
 126823218.041 7  24133655.311
 118591058.535 8  22567136.433
 108015800.026 9  20554728.019
 114265502.622 8  21743995.266
 108203541.907 9  20590457.445
 122242934.317 7  23262067.437
 14 10 27  6 54 30.0000000  0  8G05G02G18G31G29G21G25G12
 119859882.852 7  22808575.596
 131995953.501 5  25118020.255
 126727752.390 7  24115488.162
 118606366.928 8  22570049.764
 108017805.575 8  20555109.769
 114217264.461 8  21734815.859
 108252864.695 9  20599843.444
 122338324.074 7  23280219.353
 14 10 27  6 55  0.0000000  0  8G05G02G18G31G29G21G25G12
 119893880.319 7  22815045.306
 132087184.312 5  25135378.055
 126632255.676 6  24097314.297
 118622179.613 8  22573058.888
 108019968.890 8  20555521.398
 114169357.523 8  21725699.502
 108302659.747 9  20609319.508
 122433943.288 7  23298416.182
 14 10 27  6 55 30.0000000  0  8G05G02G18G31G29G21G25G12
 119928430.724 7  22821619.467
 132178382.570 5  25152733.592
 126536735.343 6  24079137.358
 118638500.209 8  22576164.625
 108022294.955 9  20555964.266
 114121787.297 8  21716646.960
 108352931.231 9  20618885.694
 122529794.742 7  23316656.469
 14 10 27  6 56  0.0000000  0  8G05G02G18G31G29G21G25G12
 119963524.792 7  22828298.557
 132269539.380 5  25170080.954
 126441185.840 6  24060953.857
 118655319.652 8  22579365.364
 108024775.779 9  20556436.084
 114074545.603 8  21707657.447
 108403670.400 9  20628541.118
 122625869.137 7  23334938.146
 14 10 27  6 56 30.0000000  0  8G05G02G18G31G29G21G25G12
 119999168.797 7  22835080.320
 132360660.035 5  25187424.642
 126345616.470 7  24042770.071
 118672643.402 8  22582662.336
 108027418.280 8  20556938.689
 114027638.889 8  21698731.375
 108454883.388 9  20638286.698
 122722171.896 7  23353263.932
 14 10 27  6 57  0.0000000  0  8G05G02G18G31G29G21G25G12
 120035366.051 7  22841969.678
 132451748.051 5  25204756.209
 126250034.219 6  24024580.899
 118690474.636 8  22586054.981
 108030226.876 8  20557473.404
 113981071.985 8  21689869.712
 108506573.936 9  20648123.112
 122818705.858 7  23371634.651
 14 10 27  6 57 30.0000000  0  8G05G02G18G31G29G21G25G12
 120072108.927 7  22848961.280
 132542795.424 5  25222083.039
 126154434.770 6  24006389.112
 118708805.369 8  22589543.330
 108033195.123 9  20558038.310
 113934838.103 8  21681071.966
 108558734.669 9  20658048.945
 122915462.637 7  23390047.062
 14 10 27  6 58  0.0000000  0  8G05G02G18G31G29G21G25G12
 120109395.901 7  22856056.425
 132633800.217 6  25239400.950
 126058819.769 6  23988194.091
 118727633.460 8  22593125.866
 108036322.703 9  20558633.620
 113888936.495 8  21672336.986
 108611364.132 9  20668064.019
 123012440.085 7  23408501.563
 14 10 27  6 58 30.0000000  0  8G05G02G18G31G29G21G25G12
 120147228.514 7  22863255.916
 132724763.669 5  25256709.456
 125963193.953 6  23969994.961
 118746959.854 8  22596804.049
 108039611.967 9  20559259.569
 113843369.648 8  21663665.742
 108664463.867 9  20678168.521
 123109638.658 7  23426997.253
 14 10 27  6 59  0.0000000  0  8G05G02G18G31G29G21G25G12
 120185606.450 8  22870559.355
 132815685.434 5  25274010.238
 125867560.460 6  23951797.402
 118766784.033 8  22600576.475
 108043063.789 9  20559916.422
 113798138.541 8  21655058.725
 108718033.998 9  20688362.913
 123207057.826 7  23445535.662
 14 10 27  6 59 30.0000000  0  8G05G02G18G31G29G21G25G12
 120224524.699 8  22877965.647
 132906560.329 6  25291304.841
 125771918.515 6  23933598.538
 118787100.690 8  22604442.763
 108046674.695 8  20560603.543
 113753239.226 8  21646514.774
 108772069.823 9  20698645.734
 123304692.092 7  23464114.417
 14 10 27  7  0  0.0000000  0  8G05G02G18G31G29G21G25G12
 120263979.259 7  22885472.668
 132997384.157 6  25308587.234
 125676266.866 6  23915396.780
 118807905.435 8  22608401.414
 108050441.224 9  20561320.306
 113708668.008 8  21638033.252
 108826567.174 9  20709016.043
 123402536.508 7  23482734.885
 14 10 27  7  0 30.0000000  0  8G05G02G18G31G29G21G25G12
 120303979.852 8  22893085.092
 133088166.453 6  25325864.290
 125580618.650 7  23897194.576
 118829207.802 7  22612454.542
 108054374.718 8  20562069.038
 113664436.128 8  21629615.940
 108881536.270 9  20719476.478
 123500600.423 7  23501395.860
 14 10 27  7  1  0.0000000  0  8G05G02G18G31G29G21G25G12
 120344522.125 7  22900799.865
 133178903.767 6  25343130.579
 125484973.417 6  23878992.771
 118851003.096 7  22616603.445
 108058472.222 8  20562848.216
 113620540.545 8  21621263.105
 108936973.200 8  20730025.788
 123598879.079 7  23520098.078
 14 10 27  7  1 30.0000000  0  8G05G02G18G31G29G21G25G12
 120385602.234 7  22908617.485
 133269591.684 6  25360386.944
 125389331.251 6  23860793.369
 118873286.752 8  22620843.216
 108062730.956 8  20563659.135
 113576978.143 8  21612973.405
 108992874.086 8  20740663.241
 123697368.037 7  23538840.110
 14 10 27  7  2  0.0000000  0  8G05G02G18G31G29G21G25G12
 120427221.474 7  22916536.384
 133360231.338 6  25377634.903
 125293696.350 6  23842595.679
 118896059.837 8  22625177.368
 108067153.684 8  20564500.588
 113533751.278 8  21604748.053
 109049240.460 8  20751389.582
 123796068.159 7  23557621.859
 14 10 27  7  2 30.0000000  0  8G05G02G18G31G29G21G25G12
 120469375.574 7  22924558.215
 133450817.850 6  25394875.035
 125198067.898 6  23824396.225
 118919317.596 8  22629602.939
 108071737.057 8  20565373.166
 113490856.385 8  21596584.925
 109106067.986 8  20762203.697
 123894973.563 7  23576443.739
 14 10 27  7  3  0.0000000  0  8G05G02G18G31G29G21G25G12
 120512074.097 7  22932684.259
 133541362.437 6  25412105.769
 125102459.987 6  23806203.894
 118943069.512 7  22634122.468
 108076492.635 8  20566277.946
 113448304.894 8  21588488.073
 109163367.080 8  20773107.505
 123994094.466 7  23595306.124
 14 10 27  7  3 30.0000000  0  8G05G02G18G31G29G21G25G12
 120555302.436 7  22940909.997
 133631849.860 5  25429324.638
 125006861.179 7  23788012.154
 118967300.420 7  22638733.931
 108081406.777 8  20567213.159
 113406082.458 8  21580453.208
 109221123.051 9  20784098.229
 124093415.591 7  23614207.261
 14 10 27  7  4  0.0000000  0  8G05G02G18G31G29G21G25G12
 120599060.786 7  22949237.143
 133722280.936 6  25446532.670
 124911275.656 7  23769822.441
 118992010.421 8  22643436.069
 108086481.394 8  20568178.797
 113364190.896 8  21572481.737
 109279336.482 8  20795175.661
 124192936.882 7  23633144.706
 14 10 27  7  4 30.0000000  0  8G05G02G18G31G29G21G25G12
 120643350.231 7  22957664.878
 133812656.316 6  25463729.854
 124815708.093 7  23751636.751
 119017200.057 8  22648230.150
 108091718.828 8  20569175.428
 113322632.618 8  21564573.140
 109338008.679 8  20806340.967
 124292658.500 7  23652122.375
 14 10 27  7  5  0.0000000  0  8G05G02G18G31G29G21G25G12
 120688174.784 7  22966195.259
 133902980.034 6  25480918.657
 124720165.594 7  23733454.680
 119042872.481 7  22653114.160
 108097124.119 9  20570203.917
 113281411.802 8  21556729.523
 109397143.504 8  20817593.702
 124392583.743 7  23671137.262
 14 10 27  7  5 30.0000000  0  8G05G02G18G31G29G21G25G12
 120733527.696 7  22974825.490
 133993246.047 5  25498093.026
 124624645.572 7  23715278.514
 119069021.099 8  22658090.893
 108102692.668 9  20571263.812
 113240523.465 8  21548948.527
 109456734.862 8  20828933.762
 124492706.488 7  23690189.102
 14 10 27  7  6  0.0000000  0  7G05G18G31G29G21G25G12
 120779405.178 7  22983556.203
 124529148.773 6  23697104.993
 119095641.982 8  22663156.881
 108108422.229 9  20572354.147
 113199965.236 8  21541230.888
 109516779.415 8  20840360.111
 124593021.752 7  23709278.813
 14 10 27  7  6 30.0000000  0  7G05G18G31G29G21G25G12
 120825811.508 7  22992386.696
 124433682.235 7  23678938.280
 119122738.382 7  22668313.085
 108114318.121 8  20573475.883
 113159741.791 8  21533576.410
 109577281.271 8  20851872.807
 124693533.455 7  23728405.837
 14 10 27  7  7  0.0000000  0  7G05G18G31G29G21G25G12
 120872742.496 7  23001317.672
 124338245.984 7  23660775.762
 119150306.466 7  22673559.525
 108120378.306 9  20574629.125
 113119850.789 8  21525985.441
 109638237.068 8  20863472.517
 124794237.434 7  23747570.648
 14 10 27  7  7 30.0000000  0  7G05G18G31G29G21G25G12
 120920196.443 7  23010348.246
 124242842.244 7  23642622.577
 119178343.782 7  22678894.957
 108126602.367 9  20575813.847
 113080291.157 8  21518456.899
 109699644.901 8  20875158.242
 124895131.123 7  23766770.305
 14 10 27  7  8  0.0000000  0  7G05G18G31G29G21G25G12
 120968172.727 7  23019477.936
 124147474.211 7  23624475.029
 119206849.196 7  22684319.028
 108132991.002 9  20577029.540
 113041063.566 8  21510992.071
 109761504.214 8  20886929.757
 124996213.717 7  23786005.749
 14 10 27  7  8 30.0000000  0  7G05G18G31G29G21G25G12
 121016670.498 7  23028707.204
 124052144.472 7  23606334.606
 119235821.522 7  22689832.154
 108139545.405 8  20578276.680
 113002168.199 8  21503590.874
 109823814.601 8  20898787.152
 125097483.841 7  23805277.317
 14 10 27  7  9  0.0000000  0  7G05G18G31G29G21G25G12
 121065687.862 7  23038034.436
 123956855.625 7  23588199.863
 119265258.984 7  22695434.166
 108146265.517 8  20579555.253
 112963604.489 8  21496252.488
 109886574.796 8  20910730.061
 125198940.156 7  23824583.505
 14 10 27  7  9 30.0000000  0  7G05G18G31G29G21G25G12
 121115221.081 7  23047460.013
 123861607.843 7  23570075.538
 119295157.217 7  22701123.788
 108153149.074 8  20580865.281
 112925369.684 8  21488976.550
 109949781.176 8  20922757.804
 125300576.947 7  23843925.124
 14 10 27  7 10  0.0000000  0  7G05G18G31G29G21G25G12
 121165267.099 7  23056983.112
 123766402.141 7  23551958.246
 119325512.820 7  22706900.428
 108160194.866 8  20582206.177
 112887462.250 8  21481763.105
 110013430.985 8  20934870.227
 125402392.157 7  23863298.951
 14 10 27  7 10 30.0000000  0  7G05G18G31G29G21G25G12
 121215833.410 7  23066606.490
 123671250.097 7  23533852.076
 119356332.607 7  22712765.459
 108167412.113 8  20583579.539
 112849890.731 8  21474613.426
 110077531.991 8  20947067.850
 125504392.964 7  23882710.909
 14 10 27  7 11  0.0000000  0  7G05G18G31G29G21G25G12
 121266912.820 7  23076325.599
 123576147.819 7  23515754.389
 119387609.450 7  22718716.959
 108174795.279 8  20584984.392
 112812649.338 8  21467526.538
 110142077.336 8  20959350.881
 125606571.712 7  23902154.758
 14 10 27  7 11 30.0000000  0  7G05G18G31G29G21G25G12
 121318503.963 7  23086144.541
 123481098.405 7  23497667.124
 119419341.472 7  22724755.162
 108182344.556 8  20586421.119
 112775737.888 8  21460502.681
 110207065.879 8  20971717.771
 125708926.478 7  23921633.642
 14 10 27  7 12  0.0000000  0  7G05G18G31G29G21G25G12
 121370605.502 7  23096058.263
 123386104.770 7  23479590.110
 119451527.297 7  22730880.075
 108190060.966 8  20587889.489
 112739156.296 8  21453541.404
 110272496.667 8  20984168.619
 125811456.114 7  23941143.765
 14 10 27  7 12 30.0000000  0  7G05G18G31G29G21G25G12
 121423209.251 7  23106069.420
 123291162.586 7  23461522.519
 119484158.197 7  22737090.126
 108197938.170 8  20589388.777
 112702897.271 8  21446641.233
 110338361.830 8  20996702.694
 125914152.107 7  23960686.750
 14 10 27  7 13  0.0000000  0  7G05G18G31G29G21G25G12
 121476324.522 7  23116176.330
 123196285.041 7  23443467.369
 119517242.877 7  22743385.463
 108205987.452 8  20590920.443
 112666971.626 8  21439805.043
 110404670.842 8  21009321.085
 126017023.025 7  23980261.786
 14 10 27  7 13 30.0000000  0  7G05G18G31G29G21G25G12
 121529949.059 7  23126380.726
 123101473.992 7  23425425.931
 119550778.788 7  22749766.923
 108214207.730 8  20592484.880
 112631378.199 8  21433031.773
 110471421.577 8  21022023.095
 126120066.554 7  23999871.342
 14 10 27  7 14  0.0000000  0  7G05G18G31G29G21G25G12
 121584079.375 7  23136682.046
 123006730.077 6  23407395.982
 119584761.759 7  22756234.090
 108222597.260 8  20594081.107
 112596114.436 8  21426321.262
 110538610.613 8  21034808.949
 126223278.792 7  24019511.884
 14 10 27  7 14 30.0000000  0  7G05G18G31G29G21G25G12
 121638708.581 7  23147077.154
 122912051.686 7  23389380.880
 119619185.735 7  22762784.728
 108231152.507 8  20595708.849
 112561175.874 8  21419672.949
 110606232.527 8  21047676.854
 126326653.716 7  24039185.119
 14 10 27  7 15  0.0000000  0  7G05G18G31G29G21G25G12
 121693836.095 7  23157567.456
 122817441.334 6  23371375.951
 119654049.112 7  22769419.344
 108239874.379 8  20597368.936
 112526562.442 8  21413086.367
 110674286.477 8  21060627.515
 126430190.199 7  24058886.516
 14 10 27  7 15 30.0000000  0  7G05G18G31G29G21G25G12
 121749461.038 7  23168153.071
 122722902.942 7  23353386.216
 119689350.747 7  22776137.253
 108248763.961 8  20599060.812
 112492274.853 8  21406561.071
 110742771.907 8  21073659.474
 126533887.354 7  24078619.671
 14 10 27  7 16  0.0000000  0  7G05G18G31G29G21G25G12
 121805586.951 7  23178833.278
 122628443.915 7  23335411.189
 119725094.047 7  22782938.445
 108257826.642 8  20600785.256
 112458317.774 8  21400099.626
 110811692.795 8  21086774.657
 126637748.181 7  24098385.913
 14 10 27  7 16 30.0000000  0  7G05G18G31G29G21G25G12
 121862210.319 7  23189608.565
 122534064.843 7  23317452.150
 119761274.777 7  22789823.330
 108267060.681 8  20602542.261
 112424688.750 8  21393700.041
 110881045.644 8  21099972.512
 126741768.950 7  24118179.365
 14 10 27  7 17  0.0000000  0  7G05G18G31G29G21G25G12
 121919336.042 7  23200478.815
 122439774.838 7  23299507.461
 119797897.433 7  22796792.595
 108276472.996 8  20604333.754
 112391394.207 8  21387364.903
 110950835.626 8  21113253.402
 126845954.539 7  24138004.551
 14 10 27  7 17 30.0000000  0  7G05G18G31G29G21G25G12
 121976955.884 7  23211444.370
 122345570.206 7  23281582.039
 119834953.962 7  22803843.874
 108286057.937 8  20606157.615
 112358427.413 8  21381091.375
 111021055.181 8  21126615.412
 126950296.805 7  24157860.951
 14 10 27  7 18  0.0000000  0  7G05G18G31G29G21G25G12
 122035066.701 7  23222502.932
 122251452.145 7  23263670.993
 119872440.369 7  22810977.720
 108295814.385 8  20608013.910
 112325786.652 8  21374879.639
 111091701.366 8  21140059.265
 127054792.303 7  24177747.069
 14 10 27  7 18 30.0000000  0  7G05G18G31G29G21G25G12
 122093665.961 7  23233654.184
 122157422.122 7  23245777.665
 119910354.150 7  22818192.153
 108305741.987 8  20609903.235
 112293470.266 8  21368730.195
 111162771.890 8  21153583.513
 127159438.466 7  24197660.061
 14 10 27  7 19  0.0000000  0  7G05G18G31G29G21G25G12
 122152754.887 7  23244897.337
 122063486.438 7  23227902.641
 119948696.202 7  22825489.389
 108315844.150 8  20611825.681
 112261481.303 8  21362642.943
 111234268.578 8  21167188.835
 127264236.850 7  24217603.756
 14 10 27  7 19 30.0000000  0  7G05G18G31G29G21G25G12
 122212330.571 7  23256234.771
 121969646.078 7  23210045.839
 119987463.165 7  22832865.803
 108326120.073 8  20613781.124
 112229818.093 8  21356617.484
 111306188.688 8  21180874.899
 127369183.935 7  24237575.188
 14 10 27  7 20  0.0000000  0  7G05G18G31G29G21G25G12
 122272389.451 7  23267663.411
 121875901.194 7  23192206.125
 120026651.265 7  22840323.496
 108336568.127 8  20615769.231
 112198478.050 8  21350653.451
 111378528.974 8  21194640.595
 127474276.362 6  24257573.177
 14 10 27  7 20 30.0000000  0  7G05G18G31G29G21G25G12
 122332927.418 7  23279184.339
 121782252.443 7  23174385.521
 120066255.770 7  22847859.812
 108347186.599 8  20617789.844
 112167458.454 8  21344750.932
 111451285.412 8  21208486.147
 127579509.774 7  24277599.680
 14 10 27  7 21  0.0000000  0  7G05G18G31G29G21G25G12
 122393940.150 7  23290794.263
 121688700.280 7  23156582.867
 120106271.974 7  22855475.412
 108357973.562 8  20619843.016
 112136756.475 8  21338908.745
 111524454.394 8  21222409.634
 127684879.974 6  24297649.714
 14 10 27  7 21 30.0000000  0  7G05G18G31G29G21G25G12
 122455432.665 7  23302495.260
 121595254.139 7  23138800.926
 120146705.109 7  22863169.598
 108368936.537 8  20621928.920
 112106378.916 8  21333127.988
 111598041.418 8  21236413.060
 127790392.236 6  24317728.557
 14 10 27  7 22  0.0000000  0  8G05G16G18G31G29G21G25G12
 122517398.240 7  23314287.611
 133764448.157 5  25454530.387
 121501911.405 7  23121037.509
 120187547.713 7  22870941.513
 108380070.535 8  20624047.580
 112076319.915 8  21327407.814
 111672039.597 8  21250494.383
 127896039.370 6  24337831.977
 14 10 27  7 22 30.0000000  0  8G05G16G18G31G29G21G25G12
 122579843.732 7  23326170.481
 133660010.939 5  25434656.663
 121408684.256 7  23103297.638
 120228806.941 7  22878793.273
 108391385.087 8  20626201.033
 112046588.409 8  21321750.142
 111746456.848 8  21264655.957
 128001828.991 6  24357963.538
 14 10 27  7 23  0.0000000  0  8G05G16G18G31G29G21G25G12
 122642756.882 7  23338142.223
 133555582.533 5  25414785.040
 121315563.142 7  23085576.444
 120270469.338 7  22886720.734
 108402870.007 8  20628386.421
 112017172.667 8  21316152.519
 111821280.391 8  21278894.324
 128107747.986 6  24378121.627
 14 10 27  7 23 30.0000000  0  8G05G16G18G31G29G21G25G12
 122706140.303 7  23350204.404
 133451168.543 5  25394916.047
 121222556.316 7  23067879.089
 120312537.339 7  22894726.264
 108414530.255 8  20630605.123
 111988076.977 8  21310616.084
 111896513.630 8  21293210.672
 128213799.426 6  24398302.726
 14 10 27  7 24  0.0000000  0  8G05G16G18G31G29G21G25G12
 122769989.691 7  23362355.273
 133346768.815 5  25375048.695
 121129664.055 7  23050201.505
 120355006.886 7  22902808.363
 108426364.135 8  20632857.129
 111959298.442 8  21305139.525
 111972152.714 8  21307604.742
 128319979.437 6  24418507.658
 14 10 27  7 24 30.0000000  0  8G05G16G18G31G29G21G25G12
 122834302.278 7  23374593.054
 133242383.859 5  25355184.384
 121036887.796 7  23032547.397
 120397874.331 7  22910965.955
 108438371.178 8  20635142.075
 111930835.814 8  21299722.865
 112048195.029 8  21322074.802
 128426284.551 6  24438737.677
 14 10 27  7 25  0.0000000  0  8G05G16G18G31G29G21G25G12
 122899080.661 7  23386919.962
 133138020.824 5  25335325.880
 120944234.695 7  23014916.254
 120441142.304 7  22919199.506
 108450556.436 8  20637460.955
 111902693.218 8  21294367.752
 112124643.600 8  21336622.340
 128532717.808 6  24458991.465
 14 10 27  7 25 30.0000000  0  8G05G16G18G31G29G21G25G12
 122964330.708 7  23399336.896
 133033690.025 5  25315470.932
 120851715.254 7  22997310.262
 120484816.096 7  22927509.709
 108462928.089 8  20639815.076
 111874877.779 8  21289074.626
 112201504.648 8  21351249.085
 128639285.161 6  24479270.653
 14 10 27  7 26  0.0000000  0  8G05G16G18G31G29G21G25G12
 123030038.694 7  23411840.619
 132929381.585 5  25295620.380
 120759320.011 7  22979727.498
 120528881.705 7  22935895.360
 108475474.814 8  20642202.496
 111847377.209 8  21283841.424
 112278764.689 8  21365951.330
 128745972.881 6  24499573.834
 14 10 27  7 26 30.0000000  0  8G05G16G18G31G29G21G25G12
 123096199.188 7  23424430.850
 132825093.956 5  25275776.493
 120667048.467 7  22962168.459
 120573333.611 7  22944354.960
 108488193.895 9  20644623.439
 111820187.461 8  21278667.159
 112356418.783 8  21380728.403
 128852775.706 6  24519897.649
 14 10 27  7 27  0.0000000  0  8G05G16G18G31G29G21G25G12
 123162812.104 7  23437106.761
 132720831.172 5  25255937.723
 120574905.342 7  22944634.650
 120618171.417 7  22952887.650
 108501087.566 8  20647076.683
 111793309.909 8  21273553.023
 112434467.281 8  21395580.720
 128959693.784 6  24540243.284
 14 10 27  7 27 30.0000000  0  8G05G16G18G31G29G21G25G12
 123229883.182 7  23449869.780
 132616603.384 5  25236102.889
 120482900.412 7  22927126.782
 120663400.367 7  22961494.085
 108514163.813 8  20649565.096
 111766751.899 8  21268499.309
 112512916.125 8  21410509.212
 129066732.773 6  24560614.510
 14 10 27  7 28  0.0000000  0  8G05G16G18G31G29G21G25G12
 123297402.712 7  23462718.567
 132512404.074 5  25216274.734
 120391028.492 7  22909643.710
 120709010.238 7  22970173.344
 108527415.734 9  20652086.827
 111740504.841 8  21263504.626
 112591755.706 8  21425511.748
 129173882.946 6  24581005.408
 14 10 27  7 28 30.0000000  0  8G05G16G18G31G29G21G25G12
 123365368.252 7  23475652.625
 132408236.444 5  25196451.142
 120299292.448 7  22892186.700
 120754998.566 7  22978924.757
 108540843.947 8  20654642.284
 111714568.515 8  21258568.857
 112670984.639 8  21440588.349
 129281142.707 7  24601416.561
 14 10 27  7 29  0.0000000  0  8G05G16G18G31G29G21G25G12
 123433785.144 7  23488671.828
 132304109.635 6  25176637.889
 120207702.186 7  22874758.678
 120801370.691 7  22987748.757
 108554456.077 9  20657232.429
 111688949.221 8  21253693.329
 112750608.347 8  21455740.426
 129388517.133 6  24621849.130
 14 10 27  7 29 30.0000000  0  8G05G16G18G31G29G21G25G12
 123502647.433 7  23501776.604
 132200021.598 6  25156830.116
 120116255.843 7  22857355.896
 120848119.897 7  22996645.695
 108568248.537 8  20659857.287
 111663642.525 8  21248877.950
 112830621.083 8  21470967.036
 129496000.315 6  24642302.926
 14 10 27  7 30  0.0000000  0  8G05G16G18G31G29G21G25G12
 123571958.746 7  23514965.684
 132095979.723 5  25137031.059
 120024961.745 7  22839982.905
 120895249.252 7  23005613.782
 108582227.109 9  20662517.480
 111638652.894 8  21244122.806
 112911026.453 8  21486267.304
 129603595.876 6  24662777.443
 14 10 27  7 30 30.0000000  0  8G05G16G18G31G29G21G25G12
 123641705.485 7  23528238.244
 131991976.226 5  25117239.901
 119933811.533 7  22822639.016
 120942745.679 7  23014651.636
 108596381.406 9  20665210.667
 111613969.313 8  21239425.459
 112991812.059 8  21501640.641
 129711291.486 6  24683272.051
 14 10 27  7 31  0.0000000  0  8G05G16G18G31G29G21G25G12
 123711890.343 7  23541594.486
 131888017.568 5  25097455.607
 119842812.266 7  22805321.219
 120990611.336 7  23023760.516
 108610717.034 9  20667938.861
 111589595.961 8  21234787.076
 113072980.740 8  21517086.535
 129819089.204 6  24703785.615
 14 10 27  7 31 30.0000000  0  9G05G16G18G31G15G29G21G25G12
 123782510.076 7  23555032.446
 131784104.200 5  25077682.492
 119751965.303 7  22788033.972
 121038842.180 7  23032939.521
 134379779.241 5  25571623.222
 108625232.782 8  20670700.907
 111565530.500 8  21230207.872
 113154529.246 8  21532604.570
 129926985.864 6  24724318.360
 14 10 27  7 32  0.0000000  0  9G05G16G18G31G15G29G21G25G12
 123853557.837 7  23568552.657
 131680233.403 5  25057916.184
 119661268.343 7  22770774.807
 121087430.809 7  23042185.026
 134317427.424 6  25559754.557
 108639924.314 9  20673496.846
 111541766.956 8  21225685.943
 113236450.871 8  21548194.088
 130034974.696 6  24744868.564
 14 10 27  7 32 30.0000000  0  9G05G16G18G31G15G29G21G25G12
 123925042.622 7  23582155.817
 131576419.234 5  25038161.872
 119570736.097 7  22753546.937
 121136386.996 7  23051500.881
 134254992.254 6  25547875.686
 108654803.936 9  20676328.411
 111518316.872 8  21221223.490
 113318755.763 8  21563856.308
 130143065.750 6  24765436.591
 14 10 27  7 33  0.0000000  0  9G05G16G18G31G15G29G21G25G12
 123996962.804 7  23595841.466
 131472664.654 5  25018416.992
 119480370.698 7  22736351.427
 121185708.319 7  23060886.671
 134192475.752 5  25535977.608
 108669872.459 8  20679195.700
 111495179.872 8  21216820.218
 113401442.260 8  21579590.921
 130251257.007 6  24786024.988
 14 10 27  7 33 30.0000000  0  9G05G16G18G31G15G29G21G25G12
 124069305.523 7  23609608.447
 131368961.465 6  24998685.443
 119390164.544 7  22719185.605
 121235381.228 7  23070339.679
 134129869.747 6  25524063.591
 108685119.679 8  20682097.290
 111472344.538 8  21212474.618
 113484497.849 8  21595395.672
 130359536.047 6  24806631.211
 14 10 27  7 34  0.0000000  0  9G05G16G18G31G15G29G21G25G12
 124142072.606 7  23623456.329
 131265314.901 6  24978962.342
 119300123.490 7  22702051.550
 121285407.090 7  23079858.645
 134067180.351 5  25512129.562
 108700549.800 9  20685033.881
 111449813.787 8  21208187.430
 113567924.274 8  21611271.306
 130467904.832 6  24827255.338
 14 10 27  7 34 30.0000000  0  9G05G16G18G31G15G29G21G25G12
 124215260.404 7  23637382.795
 131161726.682 5  24959249.081
 119210248.871 7  22684949.034
 121335782.705 7  23089445.392
 134004409.537 5  25500186.872
 108716162.629 8  20688004.702
 111427586.263 8  21203957.825
 113651718.878 8  21627217.151
 130576360.477 6  24847895.589
 14 10 27  7 35  0.0000000  0  9G05G16G18G31G15G29G21G25G12
 124288872.701 7  23651391.843
 131058205.152 5  24939550.045
 119120549.762 7  22667879.716
 121386511.405 7  23099099.014
 133941566.275 6  25488230.408
 108731964.469 8  20691011.956
 111405666.745 8  21199786.493
 113735885.716 8  21643234.075
 130684906.351 6  24868550.264
 14 10 27  7 35 30.0000000  0  9G05G16G18G31G15G29G21G25G12
 124362908.750 7  23665479.720
 130954753.463 5  24919861.224
 119031029.924 7  22650844.052
 121437591.903 7  23108819.231
 133878653.815 6  25476259.824
 108747957.109 8  20694054.785
 111384055.889 8  21195674.031
 113820424.145 8  21659320.916
 130793542.181 6  24889223.313
 14 10 27  7 36  0.0000000  0  9G05G16G18G31G15G29G21G25G12
 124437368.884 7  23679649.267
 130851377.315 5  24900191.275
 118941694.691 7  22633844.341
 121489024.581 7  23118606.268
 133815678.258 6  25464272.228
 108764143.943 8  20697135.230
 111362755.863 8  21191620.702
 113905335.190 8  21675479.379
 130902268.605 6  24909913.993
 14 10 27  7 36 30.0000000  0  9G05G16G18G31G15G29G21G25G12
 124512245.806 7  23693897.919
 130748073.215 6  24880534.969
 118852540.978 7  22616878.541
 121540801.279 7  23128458.530
 133752636.395 6  25452277.026
 108780520.180 8  20700251.487
 111341761.112 8  21187625.843
 113990611.704 8  21691707.325
 131011079.070 6  24930619.795
